"propertyLocation_id","props.address","props.latitude","props.longitude","props.zipcode","props.zpid","props.city","props.county","props.state","props.country"
1,"7525 Matherly Dr",35.997555,-78.54477,27587,6495203,"Wake Forest","WAKE","NC","US"
2,"132 W Holding Ave",35.972195,-78.51688,27587,6511345,"Wake Forest","WAKE","NC","US"
3,"2809 Stirrup Ct",35.93781,-78.52755,27587,6565463,"Wake Forest","WAKE","NC","US"
4,"900 Finchurch Cir",35.994972,-78.504776,27587,50112075,"Wake Forest","WAKE","NC","US"
5,"2812 Kimmon Way",36.01907,-78.55357,27587,60399270,"Wake Forest","WAKE","NC","US"
6,"1747 Main Divide Dr",35.963654,-78.47484,27587,82677869,"Wake Forest","WAKE","NC","US"
7,"4003 Stoneway Ct",36.037243,-78.557175,27587,93022071,"Wake Forest","WAKE","NC","US"
8,"4008 Heritage View Trl",35.939213,-78.49239,27587,103765608,"Wake Forest","WAKE","NC","US"
9,"1221 Golden Star Way",35.940727,-78.491486,27587,110606906,"Wake Forest","WAKE","NC","US"
10,"912 Keith Rd",35.988007,-78.60894,27587,133227219,"Wake Forest","WAKE","NC","US"
11,"1604 Frog Hollow Way",35.965935,-78.47714,27587,133703720,"Wake Forest","WAKE","NC","US"
12,"821 Traditions Ridge Dr",35.984325,-78.49421,27587,215493021,"Wake Forest","WAKE","NC","US"
13,"133 Sam Ct",35.95123,-78.455795,27587,338501724,"Wake Forest","WAKE","NC","US"
14,"1768 Golden Honey Dr",35.95123,-78.455795,27587,2061017409,"Wake Forest","WAKE","NC","US"
15,"1237 Remey Ave",35.95123,-78.455795,27587,2061458985,"Wake Forest","WAKE","NC","US"
16,"321 Sparrow Rdg Dr",35.95123,-78.455795,27587,2061743817,"Wake Forest","WAKE","NC","US"
17,"8616 Bishop Pine Ln",35.95123,-78.455795,27587,2067456954,"Wake Forest","WAKE","NC","US"
18,"3625 Purnell Rd",36.016052,-78.57749,27587,6470783,"Wake Forest","WAKE","NC","US"
19,"3417 Donner Trl",35.918243,-78.51401,27587,6513444,"Wake Forest","WAKE","NC","US"
20,"229 Yellow Poplar Ave",35.968487,-78.51185,27587,6559948,"Wake Forest","WAKE","NC","US"
21,"350 Rock Spring Rd",35.986122,-78.51236,27587,67558503,"Wake Forest","WAKE","NC","US"
22,"10212 San Remo Pl",35.940098,-78.52979,27587,80200420,"Wake Forest","WAKE","NC","US"
23,"886 Blue Bird Ln",35.961025,-78.536385,27587,215492686,"Wake Forest","WAKE","NC","US"
24,"5621 Abbey Grace Ln",35.950497,-78.450676,27587,248753528,"Wake Forest","WAKE","NC","US"
25,"920 Tryon Palace St",35.981544,-78.4644,27587,305124039,"Wake Forest","WAKE","NC","US"
26,"525 Friendship Chapel Rd",35.96446,-78.500336,27587,338501638,"Wake Forest","WAKE","NC","US"
27,"3535 Bruce Garner Rd",35.96446,-78.500336,27587,2059989331,"Wake Forest","WAKE","NC","US"
28,"350 N Rock Springs Rd",35.986122,-78.51236,27587,2076026337,"Wake Forest","WAKE","NC","US"
29,"2625 Forestville Rd",35.902336,-78.50571,27587,6471204,"Wake Forest","WAKE","NC","US"
30,"2859 Steeple Run Dr",35.938843,-78.52846,27587,6556963,"Wake Forest","WAKE","NC","US"
31,"1108 Colonial Club Rd",35.95503,-78.48995,27587,60539842,"Wake Forest","WAKE","NC","US"
32,"1109 Litchborough Way",35.95031,-78.47503,27587,122282252,"Wake Forest","WAKE","NC","US"
33,"7205 Weller Cir",35.977345,-78.59656,27587,338497827,"Wake Forest","WAKE","NC","US"
34,"381 Natsam Woods Way",35.977345,-78.59656,27587,2061483381,"Wake Forest","WAKE","NC","US"
35,"345 Jorpaul Dr",36.05862,-78.57942,27587,2061833615,"Wake Forest","WAKE","NC","US"
36,"1441 Blantons Creek Dr",36.05862,-78.57942,27587,2062185600,"Wake Forest","WAKE","NC","US"
37,"151 Spring Park Rd",35.957104,-78.52078,27587,6409332,"Wake Forest","WAKE","NC","US"
38,"5321 Night Heron Dr",35.92526,-78.51841,27587,6524204,"Wake Forest","WAKE","NC","US"
39,"2104 Blue Haven Ct",35.97991,-78.57766,27587,133703376,"Wake Forest","WAKE","NC","US"
40,"1401 Blantons Creek Dr",35.97801,-78.601,27587,338497960,"Wake Forest","WAKE","NC","US"
41,"601 Watch Hill Ln",35.969093,-78.50715,27587,6556995,"Wake Forest","WAKE","NC","US"
42,"3582 Claude Ct",36.090794,-78.583176,27587,243082288,"Wake Forest","WAKE","NC","US"
43,"2304 Blue Crab Ct",36.014965,-78.56779,27587,305118024,"Wake Forest","WAKE","NC","US"
44,"6513 Penfield St",35.941715,-78.50489,27587,305120998,"Wake Forest","WAKE","NC","US"
45,"1120 Duke Farm Dr",35.951454,-78.45708,27587,338501714,"Wake Forest","WAKE","NC","US"
46,"1217 Shadow Shade Dr",35.951454,-78.45708,27587,2058450976,"Wake Forest","WAKE","NC","US"
47,"1108 Hazelmist Dr",35.951454,-78.45708,27587,2058820362,"Wake Forest","WAKE","NC","US"
48,"1112 Hazelmist Dr",35.951454,-78.45708,27587,2061510376,"Wake Forest","WAKE","NC","US"
49,"1716 Golden Honey Dr",35.951454,-78.45708,27587,2061581607,"Wake Forest","WAKE","NC","US"
50,"3420 Greenville Loop Rd",35.906574,-78.51633,27587,6511653,"Wake Forest","WAKE","NC","US"
51,"1101 Federal House Ave",35.972244,-78.55082,27587,50118800,"Wake Forest","WAKE","NC","US"
52,"8812 Murdock Cir",35.916595,-78.52929,27587,65340467,"Wake Forest","WAKE","NC","US"
53,"100 Barnhill Ln",36.018227,-78.53501,27587,67549285,"Wake Forest","WAKE","NC","US"
54,"2316 Cedar Rock Dr",35.907887,-78.507,27587,248748462,"Wake Forest","WAKE","NC","US"
55,"2021 Hay House Ave",35.97862,-78.46489,27587,305116897,"Wake Forest","WAKE","NC","US"
56,"2401 Belvita Ct",36.016594,-78.56657,27587,305118011,"Wake Forest","WAKE","NC","US"
57,"916 Tryon Palace St",35.981316,-78.46439,27587,305124040,"Wake Forest","WAKE","NC","US"
58,"1009 Harrison Ridge Rd",36.009815,-78.607254,27587,331654651,"Wake Forest","WAKE","NC","US"
59,"940 Harrison Ridge Rd",36.00788,-78.608665,27587,331656656,"Wake Forest","WAKE","NC","US"
60,"333 Heritage Regency Dr #16",36.00788,-78.608665,27587,2058367914,"Wake Forest","WAKE","NC","US"
61,"1121 Shadow Shade Dr",36.00788,-78.608665,27587,2058951372,"Wake Forest","WAKE","NC","US"
62,"1700 Golden Honey Dr",36.00788,-78.608665,27587,2060400136,"Wake Forest","WAKE","NC","US"
63,"1753 Golden Honey Dr",36.00788,-78.608665,27587,2061480711,"Wake Forest","WAKE","NC","US"
64,"865 Whistable Ave #53",36.00788,-78.608665,27587,2062055511,"Wake Forest","WAKE","NC","US"
65,"109 Cardinal Dr",35.97411,-78.49931,27587,6431534,"Wake Forest","WAKE","NC","US"
66,"707 Saint Catherines Dr",35.990955,-78.518074,27587,6541474,"Wake Forest","WAKE","NC","US"
67,"1400 Kinnesaw St",35.934505,-78.50191,27587,305123786,"Wake Forest","WAKE","NC","US"
68,"8925 Lee Brown Ridge Dr",35.921303,-78.52669,27587,331655976,"Wake Forest","WAKE","NC","US"
69,"509 Friendship Chapel Rd #HVA-0057",35.921303,-78.52669,27587,2058457963,"Wake Forest","WAKE","NC","US"
70,"872 Lochmaben St",35.991474,-78.52282,27587,6498181,"Wake Forest","WAKE","NC","US"
71,"4112 Field Oak Dr",35.94183,-78.48721,27587,113221537,"Wake Forest","WAKE","NC","US"
72,"709 Sparrowhawk Ln",35.98371,-78.48821,27587,215493488,"Wake Forest","WAKE","NC","US"
73,"2116 Possum Trot Rd",36.00857,-78.524704,27587,6452616,"Wake Forest","WAKE","NC","US"
74,"642 Guinness Pl",35.994045,-78.520615,27587,6528208,"Wake Forest","WAKE","NC","US"
75,"701 Deacon Ridge St",35.968334,-78.507965,27587,6557004,"Wake Forest","WAKE","NC","US"
76,"2013 Longmont Dr",35.963093,-78.463554,27587,94723467,"Wake Forest","WAKE","NC","US"
77,"1233 Golden Star Way",35.940186,-78.491425,27587,110621999,"Wake Forest","WAKE","NC","US"
78,"324 Austin View Blvd",35.961544,-78.46908,27587,124425102,"Wake Forest","WAKE","NC","US"
79,"209 Kavanaugh Rd",35.957863,-78.456245,27587,336867761,"Wake Forest","WAKE","NC","US"
80,"7648 Hasentree Way #514",35.957863,-78.456245,27587,2061263465,"Wake Forest","WAKE","NC","US"
81,"3408 Coach Lantern Ave",35.91584,-78.52189,27587,50105304,"Wake Forest","WAKE","NC","US"
82,"852 Wildflower Ridge Rd",35.979855,-78.49337,27587,122186858,"Wake Forest","WAKE","NC","US"
83,"7125 Cove Lake Dr",35.973984,-78.59847,27587,122276463,"Wake Forest","WAKE","NC","US"
84,"2700 Trifle Ln",35.999577,-78.54696,27587,305117706,"Wake Forest","WAKE","NC","US"
85,"2712 Derby Glen Way",36.004017,-78.55573,27587,305125883,"Wake Forest","WAKE","NC","US"
86,"260 Kavanaugh Rd",35.957905,-78.45959,27587,336868656,"Wake Forest","WAKE","NC","US"
87,"1522 Cloverfield Ct",35.957905,-78.45959,27587,2060330523,"Wake Forest","WAKE","NC","US"
88,"8101 Baronleigh Ln",35.957905,-78.45959,27587,2061817682,"Wake Forest","WAKE","NC","US"
89,"1205 Mondavi Woods Ct",35.963192,-78.51946,27587,6555535,"Wake Forest","WAKE","NC","US"
90,"12432 Oneal Rd",36.012478,-78.57544,27587,82668060,"Wake Forest","WAKE","NC","US"
91,"1600 Upper Park Rd",35.95543,-78.5101,27587,133705036,"Wake Forest","WAKE","NC","US"
92,"1057 Poppy Fields Ln",35.981895,-78.48924,27587,215493457,"Wake Forest","WAKE","NC","US"
93,"508 Friendship Chapel Rd",35.964455,-78.50014,27587,338501633,"Wake Forest","WAKE","NC","US"
94,"129 Sam Ct",35.95126,-78.45579,27587,338501727,"Wake Forest","WAKE","NC","US"
95,"525 Roycroft Dr",35.95126,-78.45579,27587,2058872285,"Wake Forest","WAKE","NC","US"
96,"508 Friendship Chapel Rd #35",35.95126,-78.45579,27587,2059752754,"Wake Forest","WAKE","NC","US"
97,"1713 Golden Honey Dr",35.95126,-78.45579,27587,2059767887,"Wake Forest","WAKE","NC","US"
98,"529 Roycroft Dr",35.95126,-78.45579,27587,2059953093,"Wake Forest","WAKE","NC","US"
99,"8537 Plimoth Hill Dr",35.91278,-78.53269,27587,50115228,"Wake Forest","WAKE","NC","US"
100,"232 Woodstaff Ave",35.939583,-78.50493,27587,305120980,"Wake Forest","WAKE","NC","US"
101,"307 Conrad Ln",35.99694,-78.500725,27587,338499169,"Wake Forest","WAKE","NC","US"
102,"369 Jorpaul Dr",35.99694,-78.500725,27587,2060437031,"Wake Forest","WAKE","NC","US"
103,"365 Jorpaul Dr",35.99694,-78.500725,27587,2060508063,"Wake Forest","WAKE","NC","US"
104,"1001 Rivermead Ln",36.000237,-78.60445,27587,82668832,"Wake Forest","WAKE","NC","US"
105,"520 Clifton Blue St",35.961388,-78.500626,27587,82674920,"Wake Forest","WAKE","NC","US"
106,"2117 Averette Rd",35.975044,-78.45976,27587,132339696,"Wake Forest","WAKE","NC","US"
107,"3701 Legato Ln",36.00956,-78.52289,27587,248755003,"Wake Forest","WAKE","NC","US"
108,"8021 Keyland Pl",35.99962,-78.59433,27587,248755862,"Wake Forest","WAKE","NC","US"
109,"1228 Remey Ave #HVC-0023",35.99962,-78.59433,27587,2059529967,"Wake Forest","WAKE","NC","US"
110,"1704 Golden Honey Dr",35.99962,-78.59433,27587,2061670279,"Wake Forest","WAKE","NC","US"
111,"8109 Baronleigh Ln",35.99962,-78.59433,27587,2062627605,"Wake Forest","WAKE","NC","US"
112,"4221 Bay Laurel Ct",35.89574,-78.49964,27587,6511916,"Wake Forest","WAKE","NC","US"
113,"425 Boardwalk Dr",35.89574,-78.49964,27587,2059267399,"Wake Forest","WAKE","NC","US"
114,"213 Stillwood Dr",36.05006,-78.63384,27587,6446981,"Wake Forest","WAKE","NC","US"
115,"1020 Prairie Aster Ct",35.940384,-78.49876,27587,89498525,"Wake Forest","WAKE","NC","US"
116,"614 Carneros St",35.99603,-78.478355,27587,332988690,"Wake Forest","WAKE","NC","US"
117,"7616 Hasentree Way #459",35.99603,-78.478355,27587,2063153513,"Wake Forest","WAKE","NC","US"
118,"1036 N Main St",35.99569,-78.49958,27587,67554035,"Wake Forest","WAKE","NC","US"
119,"524 Friendship Chapel Rd #39",35.99569,-78.49958,27587,2059540683,"Wake Forest","WAKE","NC","US"
120,"3630 Armida Dr",36.089703,-78.57474,27587,221783607,"Wake Forest","WAKE","NC","US"
121,"2228 Longmont Dr",35.95894,-78.46818,27587,248747785,"Wake Forest","WAKE","NC","US"
122,"7808 Dover Hills Dr",35.99037,-78.57044,27587,305126027,"Wake Forest","WAKE","NC","US"
123,"524 Friendship Chapel Rd",35.964455,-78.500114,27587,338501640,"Wake Forest","WAKE","NC","US"
124,"7636 Hasentree Way #467",35.964455,-78.500114,27587,2061262738,"Wake Forest","WAKE","NC","US"
125,"7017 Moresham Way",35.973396,-78.56499,27587,6553168,"Wake Forest","WAKE","NC","US"
126,"2720 Blue Ravine Rd",36.00842,-78.54354,27587,6564608,"Wake Forest","WAKE","NC","US"
127,"6105 Jones Farm Rd",35.95249,-78.47408,27587,65335653,"Wake Forest","WAKE","NC","US"
128,"7304 Hasentree Club Dr",35.988422,-78.600845,27587,132326656,"Wake Forest","WAKE","NC","US"
129,"1559 Highpoint St",35.957726,-78.51593,27587,248748359,"Wake Forest","WAKE","NC","US"
130,"300 Whispering Wind Way",36.007378,-78.502716,27587,307195199,"Wake Forest","WAKE","NC","US"
131,"708 Pelzer Dr",35.931515,-78.49613,27587,331653063,"Wake Forest","WAKE","NC","US"
132,"537 Roycroft Dr",35.931515,-78.49613,27587,2063279650,"Wake Forest","WAKE","NC","US"
133,"5513 Old Still Rd",36.016308,-78.62947,27587,6449566,"Wake Forest","WAKE","NC","US"
134,"1312 Sweetclover Dr",35.952995,-78.46613,27587,50116311,"Wake Forest","WAKE","NC","US"
135,"2932 Dargan Hills Dr",35.9106,-78.53276,27587,60398377,"Wake Forest","WAKE","NC","US"
136,"1413 Lindenberg Sq",35.934612,-78.50976,27587,69567092,"Wake Forest","WAKE","NC","US"
137,"1405 Litchborough Way",35.95334,-78.47452,27587,111574195,"Wake Forest","WAKE","NC","US"
138,"3304 Silver Ore Ct",35.945137,-78.515465,27587,125251114,"Wake Forest","WAKE","NC","US"
139,"125 Kimber Lane Hvn #83",35.945137,-78.515465,27587,2059540682,"Wake Forest","WAKE","NC","US"
140,"509 Rain Drizzle Ct",35.945137,-78.515465,27587,2060161818,"Wake Forest","WAKE","NC","US"
141,"922 N Main St",35.992928,-78.50125,27587,6389111,"Wake Forest","WAKE","NC","US"
142,"522 E Nelson Ave",35.98068,-78.50224,27587,6434566,"Wake Forest","WAKE","NC","US"
143,"913 Richland Ridge Dr",35.971195,-78.52837,27587,65345672,"Wake Forest","WAKE","NC","US"
144,"505 Checkmate Cir",35.974335,-78.47781,27587,92420906,"Wake Forest","WAKE","NC","US"
145,"1053 Heather Ln",36.06391,-78.59493,27587,221782400,"Wake Forest","WAKE","NC","US"
146,"116 Stone Park Dr",35.969166,-78.48539,27587,248755367,"Wake Forest","WAKE","NC","US"
147,"8924 Kitchin Farms Way",35.921295,-78.527145,27587,331653616,"Wake Forest","WAKE","NC","US"
148,"1140 Duke Farm Dr",35.951492,-78.45704,27587,338501675,"Wake Forest","WAKE","NC","US"
149,"1705 Golden Honey Dr",35.951492,-78.45704,27587,2060130154,"Wake Forest","WAKE","NC","US"
150,"1437 Blantons Creek Dr",35.951492,-78.45704,27587,2065592398,"Wake Forest","WAKE","NC","US"
151,"101 Barley Pl",36.016495,-78.621864,27587,6449561,"Wake Forest","WAKE","NC","US"
152,"5424 Barham Siding Rd",35.933605,-78.40101,27587,6484417,"Wake Forest","WAKE","NC","US"
153,"929 Big Bend Ct",35.9583,-78.47394,27587,6514557,"Wake Forest","WAKE","NC","US"
154,"1113 Warmoven St",35.97523,-78.54491,27587,50118991,"Wake Forest","WAKE","NC","US"
155,"1404 Flemming House St",35.970924,-78.54863,27587,60539448,"Wake Forest","WAKE","NC","US"
156,"4212 Mountain Branch Dr",36.04725,-78.62255,27587,122283498,"Wake Forest","WAKE","NC","US"
157,"2224 Pierce Creek Cir",35.98883,-78.570076,27587,248750923,"Wake Forest","WAKE","NC","US"
158,"1200 Monterey Bay Dr",35.991776,-78.48221,27587,248751844,"Wake Forest","WAKE","NC","US"
159,"2365 Ballywater Lea Way",35.990505,-78.574974,27587,336867115,"Wake Forest","WAKE","NC","US"
160,"536 Roycroft Dr",35.990505,-78.574974,27587,2061447999,"Wake Forest","WAKE","NC","US"
161,"5601 Revine Dr",35.756237,-78.51324,27610,338501306,"Raleigh","WAKE","NC","US"
162,"120 Lincoln Ct",35.7785,-78.6218,27610,6402672,"Raleigh","WAKE","NC","US"
163,"2321 Bertie Dr",35.78651,-78.605064,27610,6418713,"Raleigh","WAKE","NC","US"
164,"3720 Mechanicsville Run Ln",35.728245,-78.530266,27610,50117353,"Raleigh","WAKE","NC","US"
165,"3224 Cotton Grove Run",35.756756,-78.58698,27610,53459966,"Raleigh","WAKE","NC","US"
166,"3329 Woodmeadow Pkwy",35.75541,-78.58693,27610,53460595,"Raleigh","WAKE","NC","US"
167,"6122 Ricker Rd",35.73442,-78.53632,27610,65342592,"Raleigh","WAKE","NC","US"
168,"2045 Caen St #61",35.73442,-78.53632,27610,2059385254,"Raleigh","WAKE","NC","US"
169,"625 Coleman St",35.7715,-78.62206,27610,6394342,"Raleigh","WAKE","NC","US"
170,"5704 Continental Way",35.743393,-78.541336,27610,6489614,"Raleigh","WAKE","NC","US"
171,"5400 Wine Ct",35.75703,-78.55044,27610,6502166,"Raleigh","WAKE","NC","US"
172,"3715 Culps Hill Ct",35.727947,-78.53321,27610,50117698,"Raleigh","WAKE","NC","US"
173,"2312 K Wesley Way",35.7899,-78.60691,27610,50119504,"Raleigh","WAKE","NC","US"
174,"5521 Revine Dr",35.756237,-78.51324,27610,338501305,"Raleigh","WAKE","NC","US"
175,"2466 Tonoloway Dr #319",35.756237,-78.51324,27610,2058343330,"Raleigh","WAKE","NC","US"
176,"2039 Caen St #58",35.756237,-78.51324,27610,2058847473,"Raleigh","WAKE","NC","US"
177,"5521 Revine Dr #1250",35.756237,-78.51324,27610,2060914597,"Raleigh","WAKE","NC","US"
178,"2325 Sheffield Rd",35.79165,-78.60492,27610,6377871,"Raleigh","WAKE","NC","US"
179,"512 Mountain Lake Dr",35.7838,-78.551735,27610,6536651,"Raleigh","WAKE","NC","US"
180,"2211 Violet Bluff Ct",35.75069,-78.56089,27610,60537543,"Raleigh","WAKE","NC","US"
181,"5100 Sansome Trl",35.73623,-78.55025,27610,79885982,"Raleigh","WAKE","NC","US"
182,"1408 Stone Manor Dr",35.759384,-78.5567,27610,132282801,"Raleigh","WAKE","NC","US"
183,"2444 Milburnie Rd",35.788177,-78.600266,27610,6380697,"Raleigh","WAKE","NC","US"
184,"1208 Savannah Dr",35.739964,-78.61692,27610,6381869,"Raleigh","WAKE","NC","US"
185,"3921 Joe And Ruth Lee Dr",35.75936,-78.57316,27610,79889610,"Raleigh","WAKE","NC","US"
186,"9308 Maple St",35.75936,-78.57316,27610,2060226279,"Raleigh","WAKE","NC","US"
187,"3119 Guiding Light Rd",35.74601,-78.59508,27610,80626949,"Raleigh","WAKE","NC","US"
188,"2005 Tee Dee St",35.749615,-78.60595,27610,6404824,"Raleigh","WAKE","NC","US"
189,"535 Cooper Rd",35.770573,-78.58565,27610,6424315,"Raleigh","WAKE","NC","US"
190,"3120 Olde Birch Dr",35.74193,-78.60188,27610,6496046,"Raleigh","WAKE","NC","US"
191,"162 Ivory Ln",35.700706,-78.54685,27610,336865850,"Raleigh","WAKE","NC","US"
192,"7104 Bristoe Station Ln",35.730083,-78.5322,27610,65332950,"Raleigh","WAKE","NC","US"
193,"3521 Eastern Branch Rd",35.751823,-78.588524,27610,133216016,"Raleigh","WAKE","NC","US"
194,"2200 Sheffield Rd",35.791325,-78.60987,27610,6377401,"Raleigh","WAKE","NC","US"
195,"2416 Evers Dr",35.746006,-78.61655,27610,6395809,"Raleigh","WAKE","NC","US"
196,"2924 Tuckland Dr",35.74049,-78.57404,27610,50118319,"Raleigh","WAKE","NC","US"
197,"3648 Marshlane Way",35.731354,-78.53983,27610,65342525,"Raleigh","WAKE","NC","US"
198,"5423 Big Bass Dr",35.79559,-78.54367,27610,111596761,"Raleigh","WAKE","NC","US"
199,"2702 Benevolence Dr",35.743355,-78.59349,27610,124425225,"Raleigh","WAKE","NC","US"
200,"751 Maypearl Ln",35.73958,-78.62792,27610,215491202,"Raleigh","WAKE","NC","US"
201,"1315 E Lane St",35.783424,-78.62066,27610,65344727,"Raleigh","WAKE","NC","US"
202,"2631 Poole Rd",35.7728,-78.598076,27610,6413836,"Raleigh","WAKE","NC","US"
203,"5012 Grasshopper Rd",35.748993,-78.49403,27610,50110344,"Raleigh","WAKE","NC","US"
204,"3208 Slippery Elm Dr",35.740963,-78.59913,27610,60396932,"Raleigh","WAKE","NC","US"
205,"2508 Landale Ct",35.751923,-78.56502,27610,65332298,"Raleigh","WAKE","NC","US"
206,"2447 Quarry Ridge Ln",35.739403,-78.5853,27610,69565636,"Raleigh","WAKE","NC","US"
207,"3982 Cane Garden Dr",35.726624,-78.54778,27610,69566658,"Raleigh","WAKE","NC","US"
208,"405 E Bragg St",35.726624,-78.54778,27610,2061618347,"Raleigh","WAKE","NC","US"
209,"2713 Daytona Dr",35.74212,-78.61744,27610,6405602,"Raleigh","WAKE","NC","US"
210,"829 Cumberland St",35.768387,-78.621155,27610,6425745,"Raleigh","WAKE","NC","US"
211,"1210 Canyon Rock Ct UNIT 100",35.76145,-78.55702,27610,65342618,"Raleigh","WAKE","NC","US"
212,"1424 Springshire Ct",35.75705,-78.58424,27610,67555868,"Raleigh","WAKE","NC","US"
213,"3931 Volkswalk Pl",35.727352,-78.55534,27610,81437053,"Raleigh","WAKE","NC","US"
214,"829 Cumberland St #100 & 101",35.727352,-78.55534,27610,2060702538,"Raleigh","WAKE","NC","US"
215,"333 Sustainable Way",35.727352,-78.55534,27610,2061300338,"Raleigh","WAKE","NC","US"
216,"829 Cumberland St #100",35.727352,-78.55534,27610,2061709147,"Raleigh","WAKE","NC","US"
217,"829 Cumberland St #101",35.727352,-78.55534,27610,2062291868,"Raleigh","WAKE","NC","US"
218,"2616 Elmhurst Cir",35.767883,-78.60134,27610,6435762,"Raleigh","WAKE","NC","US"
219,"5904 Dowse Cir",35.735023,-78.54083,27610,65345043,"Raleigh","WAKE","NC","US"
220,"2142 Groundwater Pl",35.80067,-78.550964,27610,67557780,"Raleigh","WAKE","NC","US"
221,"6036 Namozine Ct",35.732937,-78.53623,27610,71845119,"Raleigh","WAKE","NC","US"
222,"5422 Landreaux Dr",35.727406,-78.56451,27610,81435469,"Raleigh","WAKE","NC","US"
223,"1661 Brown Owl Dr",35.752316,-78.56622,27610,71205671,"Raleigh","WAKE","NC","US"
224,"3852 Griffis Glen Dr",35.726425,-78.53789,27610,89494536,"Raleigh","WAKE","NC","US"
225,"3213 Warm Springs Ln",35.750065,-78.5927,27610,125165765,"Raleigh","WAKE","NC","US"
226,"1601 Oxleymare Dr",35.7525,-78.56375,27610,132258946,"Raleigh","WAKE","NC","US"
227,"148 Magenta Rose Dr",35.69966,-78.54239,27610,305127723,"Raleigh","WAKE","NC","US"
228,"161 Sea Foam Dr",35.698803,-78.54782,27610,331654744,"Raleigh","WAKE","NC","US"
229,"413 Diversity Way",35.698803,-78.54782,27610,2058090288,"Raleigh","WAKE","NC","US"
230,"2471 Tonoloway Dr #335",35.698803,-78.54782,27610,2059384452,"Raleigh","WAKE","NC","US"
231,"2063 Caen St #68",35.698803,-78.54782,27610,2059401307,"Raleigh","WAKE","NC","US"
232,"2701 Chert Ln #352",35.698803,-78.54782,27610,2059534111,"Raleigh","WAKE","NC","US"
233,"438 Sustainable Way",35.697174,-78.47614,27610,2059547967,"Raleigh","WAKE","NC","US"
234,"401 Inclusion Way",35.697174,-78.47614,27610,2059932829,"Raleigh","WAKE","NC","US"
235,"325 Inclusion Way",35.697174,-78.47614,27610,2060011923,"Raleigh","WAKE","NC","US"
236,"2705 Chert Ln #350",35.697174,-78.47614,27610,2061051393,"Raleigh","WAKE","NC","US"
237,"329 Sustainable Way",35.697174,-78.47614,27610,2061300344,"Raleigh","WAKE","NC","US"
238,"419 Sustainable Way",35.697174,-78.47614,27610,2065427631,"Raleigh","WAKE","NC","US"
239,"809 Belmont Dr",35.765984,-78.60324,27610,6423264,"Raleigh","WAKE","NC","US"
240,"2209 Sanderford Rd",35.749035,-78.6124,27610,6424777,"Raleigh","WAKE","NC","US"
241,"5905 Damon Ct",35.745995,-78.536865,27610,6489595,"Raleigh","WAKE","NC","US"
242,"5513 Revine Dr",35.756237,-78.51324,27610,338501303,"Raleigh","WAKE","NC","US"
243,"2055 Caen St #65",35.756237,-78.51324,27610,2059391901,"Raleigh","WAKE","NC","US"
244,"410 Sustainable Way",35.756237,-78.51324,27610,2059824277,"Raleigh","WAKE","NC","US"
245,"4512 Queen Pierrette St",35.756237,-78.51324,27610,2064084715,"Raleigh","WAKE","NC","US"
246,"4516 Queen Pierrette St #16",35.756237,-78.51324,27610,2066810864,"Raleigh","WAKE","NC","US"
247,"1718 Fox Hollow Dr",35.738834,-78.608986,27610,6526473,"Raleigh","WAKE","NC","US"
248,"1505 Clover Ridge Ct",35.756462,-78.5855,27610,50120219,"Raleigh","WAKE","NC","US"
249,"3317 Perkins Ridge Rd",35.735905,-78.5431,27610,65332841,"Raleigh","WAKE","NC","US"
250,"3902 Evans Dr",35.7594,-78.57226,27610,132261570,"Raleigh","WAKE","NC","US"
251,"4506 Queen Pierrette St #17",35.7594,-78.57226,27610,2061455442,"Raleigh","WAKE","NC","US"
252,"3733 Hillcrest Dr",35.7962,-78.57772,27610,6432894,"Raleigh","WAKE","NC","US"
253,"3120 Riverbrooke Dr",35.73972,-78.57907,27610,50109489,"Raleigh","WAKE","NC","US"
254,"3974 Volkswalk Pl",35.72692,-78.55468,27610,132277272,"Raleigh","WAKE","NC","US"
255,"3705 Putnam Rd",35.730343,-78.54158,27610,338498401,"Raleigh","WAKE","NC","US"
256,"1609 Eva Mae Dr",35.75742,-78.55722,27610,53459788,"Raleigh","WAKE","NC","US"
257,"310 Gilman Ln UNIT 100",35.77483,-78.54613,27610,81437026,"Raleigh","WAKE","NC","US"
258,"5509 Revine Dr",35.756237,-78.51324,27610,338501302,"Raleigh","WAKE","NC","US"
259,"5509 Revine Dr #1247",35.756237,-78.51324,27610,2059426237,"Raleigh","WAKE","NC","US"
260,"4504 Queen Pierrette St #21",35.756237,-78.51324,27610,2060828023,"Raleigh","WAKE","NC","US"
261,"4508 Queen Pierrette St #19",35.756237,-78.51324,27610,2060882297,"Raleigh","WAKE","NC","US"
262,"4518 Queen Pierrette St #15",35.756237,-78.51324,27610,2060882302,"Raleigh","WAKE","NC","US"
263,"608 Delany Dr",35.788418,-78.614494,27610,6397959,"Raleigh","WAKE","NC","US"
264,"6000 Neuse St",35.756264,-78.53823,27610,6407607,"Raleigh","WAKE","NC","US"
265,"2412 Kingsboro Rd",35.79741,-78.60119,27610,60536533,"Raleigh","WAKE","NC","US"
266,"3608 Marshlane Way",35.73134,-78.54131,27610,65340316,"Raleigh","WAKE","NC","US"
267,"5944 Paducah Dr",35.7388,-78.53491,27610,68318660,"Raleigh","WAKE","NC","US"
268,"3602 Rendition St",35.74109,-78.58242,27610,79886459,"Raleigh","WAKE","NC","US"
269,"2217 Water Spray Dr",35.80245,-78.551544,27610,81764802,"Raleigh","WAKE","NC","US"
270,"1527 Brownairs Ln",35.754566,-78.56704,27610,133216088,"Raleigh","WAKE","NC","US"
271,"1424 Beverly Dr",35.760796,-78.58975,27610,6423204,"Raleigh","WAKE","NC","US"
272,"2309 Shepherd Valley St",35.74668,-78.59443,27610,122282220,"Raleigh","WAKE","NC","US"
273,"2473 Tonoloway Dr #334",35.74668,-78.59443,27610,2061690948,"Raleigh","WAKE","NC","US"
274,"320 Sustainable Way",35.74668,-78.59443,27610,2062368974,"Raleigh","WAKE","NC","US"
275,"1603 Poole Rd",35.778473,-78.61539,27610,6408988,"Raleigh","WAKE","NC","US"
276,"2421 Bertie Dr",35.78613,-78.601685,27610,6424313,"Raleigh","WAKE","NC","US"
277,"2313 August Way",35.74701,-78.54198,27610,6563696,"Raleigh","WAKE","NC","US"
278,"4908 Rose Quartz Way",35.759087,-78.557014,27610,132282787,"Raleigh","WAKE","NC","US"
279,"611 Parnell Dr",35.771362,-78.612045,27610,6410766,"Raleigh","WAKE","NC","US"
280,"6030 Silkwater Ct",35.73871,-78.53704,27610,65332938,"Raleigh","WAKE","NC","US"
281,"2275 Lazy River Dr",35.803356,-78.54731,27610,133219813,"Raleigh","WAKE","NC","US"
282,"412 Sustainable Way",35.803356,-78.54731,27610,2061740471,"Raleigh","WAKE","NC","US"
283,"1717 Oakwood Ave",35.784313,-78.61585,27610,6388418,"Raleigh","WAKE","NC","US"
284,"2477 Tonoloway Dr #332",35.784313,-78.61585,27610,2061919765,"Raleigh","WAKE","NC","US"
285,"4408 Poplar Dr",35.756306,-78.564095,27610,6381162,"Raleigh","WAKE","NC","US"
286,"1116 Harvest Mill Ct",35.73461,-78.47963,27610,6480162,"Raleigh","WAKE","NC","US"
287,"3718 Horseshoe Farm St",35.732006,-78.62458,27610,80200217,"Raleigh","WAKE","NC","US"
288,"1331 Lombar St",35.73359,-78.61569,27610,102754933,"Raleigh","WAKE","NC","US"
289,"4424 Captain Falls Dr",35.716553,-78.54065,27610,133704622,"Raleigh","WAKE","NC","US"
290,"4502 Queen Pierrette St #22",35.716553,-78.54065,27610,2061455484,"Raleigh","WAKE","NC","US"
291,"6100 Gamble Dr",35.741634,-78.5345,27610,6444494,"Raleigh","WAKE","NC","US"
292,"1604 Vintage Rd",35.758286,-78.549286,27610,6502178,"Raleigh","WAKE","NC","US"
293,"2572 Oakes Plantation Dr",35.753723,-78.50282,27610,6506878,"Raleigh","WAKE","NC","US"
294,"220 N Peartree Ln",35.786163,-78.5921,27610,6387231,"Raleigh","WAKE","NC","US"
295,"2434 Stevens Rd",35.787373,-78.600914,27610,6421634,"Raleigh","WAKE","NC","US"
296,"1015 Flower Round Ct",35.786427,-78.54069,27610,6564204,"Raleigh","WAKE","NC","US"
297,"5801 Wynmore Rd",35.72407,-78.55845,27610,60537383,"Raleigh","WAKE","NC","US"
298,"2613 Quarry Ridge Ln",35.741787,-78.58697,27610,65344787,"Raleigh","WAKE","NC","US"
299,"108 Penncross Dr",35.780025,-78.541794,27610,132281371,"Raleigh","WAKE","NC","US"
300,"4506 Queen Pierrette St",35.780025,-78.541794,27610,2066569392,"Raleigh","WAKE","NC","US"
301,"711 Coleman St",35.769745,-78.62222,27610,6383384,"Raleigh","WAKE","NC","US"
302,"519 Sunnybrook Rd",35.77273,-78.58225,27610,6446226,"Raleigh","WAKE","NC","US"
303,"1009 Helms Pl",35.793457,-78.599434,27610,6375668,"Raleigh","WAKE","NC","US"
304,"716 Lunar Dr",35.76673,-78.60993,27610,6453760,"Raleigh","WAKE","NC","US"
305,"1908 Riverknoll Dr",35.75589,-78.54614,27610,6498522,"Raleigh","WAKE","NC","US"
306,"5504 Bellcamp Ct",35.757427,-78.54761,27610,6498538,"Raleigh","WAKE","NC","US"
307,"1608 Briarmont Ct",35.754463,-78.58559,27610,53456257,"Raleigh","WAKE","NC","US"
308,"5825 Bryanstone Pl",35.72697,-78.556656,27610,68317137,"Raleigh","WAKE","NC","US"
309,"3835 Potecasi Dr",35.72615,-78.538826,27610,80204020,"Raleigh","WAKE","NC","US"
310,"316 Maple St",35.78313,-78.616394,27610,305043533,"Raleigh","WAKE","NC","US"
311,"2608 Elmhurst Cir",35.768333,-78.60187,27610,6380212,"Raleigh","WAKE","NC","US"
312,"904 Brighton Rd",35.792057,-78.60652,27610,6389724,"Raleigh","WAKE","NC","US"
313,"7027 Farmdale Rd",35.70811,-78.50984,27610,6450048,"Raleigh","WAKE","NC","US"
314,"6305 Paint Rock Ln",35.730907,-78.54493,27610,111586084,"Raleigh","WAKE","NC","US"
315,"300 Coalinga Ln UNIT 101",35.77586,-78.54464,27610,119339895,"Raleigh","WAKE","NC","US"
316,"706 Friar Tuck Rd",35.769634,-78.59523,27610,6422896,"Raleigh","WAKE","NC","US"
317,"1521 Noble Creek Ln",35.756058,-78.58624,27610,53459947,"Raleigh","WAKE","NC","US"
318,"2851 Maidenhair Dr",35.739204,-78.60067,27610,65332202,"Raleigh","WAKE","NC","US"
319,"113 Draymore Way",35.801792,-78.85073,27519,6536307,"Cary","WAKE","NC","US"
320,"108 Repton Ct",35.8269,-78.921524,27519,84510698,"Cary","WAKE","NC","US"
321,"6209 Carolina Rose Ct",35.79729,-78.91897,27519,122198642,"Cary","WAKE","NC","US"
322,"1418 Abbotsford Way",35.84168,-78.919655,27519,305072414,"Cary","WAKE","NC","US"
323,"720 Toulouse Court Carpenter Sq LOT 30",35.84168,-78.919655,27519,2058296359,"Cary","WAKE","NC","US"
324,"1056 Kingston Grove Dr",35.815323,-78.850365,27519,81761867,"Cary","WAKE","NC","US"
325,"410 April Bloom Ln",35.819057,-78.86664,27519,67554163,"Cary","WAKE","NC","US"
326,"404 Euphoria Cir",35.77472,-78.88166,27519,83963637,"Cary","WAKE","NC","US"
327,"326 Fenmore Pl",35.834118,-78.91469,27519,84510764,"Cary","WAKE","NC","US"
328,"8516 Thurford Dr",35.834118,-78.91469,27519,2060152907,"Cary","WAKE","NC","US"
329,"217 Joshua Glen Ln",35.782825,-78.85483,27519,60394436,"Cary","WAKE","NC","US"
330,"215 Bog Hill Ln",35.830948,-78.845146,27519,89797208,"Cary","WAKE","NC","US"
331,"361 Michigan Ave",35.82702,-78.89535,27519,122281693,"Cary","WAKE","NC","US"
332,"302 Bridgegate Dr",35.810318,-78.91317,27519,71207767,"Cary","WAKE","NC","US"
333,"537 Clarenbridge Dr",35.836784,-78.91694,27519,99239835,"Cary","WAKE","NC","US"
334,"125 Southwold Dr",35.786366,-78.85745,27519,6537788,"Cary","WAKE","NC","US"
335,"324 Knotts Valley Ln",35.80716,-78.86711,27519,53461409,"Cary","WAKE","NC","US"
336,"406 Knotts Valley Ln",35.80723,-78.86579,27519,60532625,"Cary","WAKE","NC","US"
337,"304 Russo Valley Dr",35.823254,-78.890015,27519,118055087,"Cary","WAKE","NC","US"
338,"412 Horatio Ct",35.844078,-78.91479,27519,121757523,"Cary","WAKE","NC","US"
339,"337 Bolton Grant Dr",35.83131,-78.90115,27519,133701128,"Cary","WAKE","NC","US"
340,"4113 Enfield Ridge Dr",35.800484,-78.87434,27519,81764806,"Cary","WAKE","NC","US"
341,"6836 Piershill Ln",35.793125,-78.92115,27519,83953875,"Cary","WAKE","NC","US"
342,"1325 Montvale Ridge Dr",35.793125,-78.92115,27519,2063293018,"Cary","WAKE","NC","US"
343,"210 Mint Hill Dr",35.7752,-78.85102,27519,6539295,"Cary","WAKE","NC","US"
344,"317 Belles Landing Ct",35.818222,-78.91206,27519,53461778,"Cary","WAKE","NC","US"
345,"2101 Roland Glen Rd",35.781456,-78.857056,27519,60394414,"Cary","WAKE","NC","US"
346,"206 Windy Peak Loop",35.844784,-78.90804,27519,89799811,"Cary","WAKE","NC","US"
347,"801 Toulouse Court Carpenter Sq LOT 44",35.844784,-78.90804,27519,2058064974,"Cary","WAKE","NC","US"
348,"503 Fryar Creek Dr",35.773647,-78.867775,27519,6561977,"Cary","WAKE","NC","US"
349,"214 Madison Grove Pl",35.820618,-78.854515,27519,50118492,"Cary","WAKE","NC","US"
350,"5404 Cary Glen Blvd",35.811375,-78.91499,27519,60532280,"Cary","WAKE","NC","US"
351,"107 Bridgegate Dr",35.809723,-78.91609,27519,65330320,"Cary","WAKE","NC","US"
352,"4131 Sykes St",35.805763,-78.8848,27519,122059667,"Cary","WAKE","NC","US"
353,"1085 Queensdale Dr",35.81811,-78.92288,27519,244385780,"Cary","WAKE","NC","US"
354,"440 White Iris Loop",35.837315,-78.90642,27519,331649198,"Cary","WAKE","NC","US"
355,"1109 Kiernan Grove Ln",35.773838,-78.87198,27519,336868006,"Cary","WAKE","NC","US"
356,"1239 Corkery Ridge Ct",35.77376,-78.87233,27519,336868544,"Cary","WAKE","NC","US"
357,"513 Maybank Pl",35.813995,-78.88388,27519,338496831,"Cary","WAKE","NC","US"
358,"471 Crayton Oak Dr",35.813995,-78.88388,27519,2058210731,"Cary","WAKE","NC","US"
359,"800 Gathering Park Cir SUITE 302",35.822083,-78.8559,27519,2079730055,"Cary","WAKE","NC","US"
360,"111 Ivy Tree Pl",35.820724,-78.852165,27519,6565349,"Cary","WAKE","NC","US"
361,"6009 Retford Grant Ct",35.80237,-78.87499,27519,89796879,"Cary","WAKE","NC","US"
362,"730 Waterford Lake Dr",35.815174,-78.90482,27519,305117779,"Cary","WAKE","NC","US"
363,"3020 Banks Knoll Dr",35.813377,-78.88276,27519,338496807,"Cary","WAKE","NC","US"
364,"807 Toulouse Court Carpenter Sq LOT 47",35.813377,-78.88276,27519,2058368739,"Cary","WAKE","NC","US"
365,"8518 Thurford Dr",35.813377,-78.88276,27519,2060180409,"Cary","WAKE","NC","US"
366,"425 Candlebrook Ln #WEL-0406",35.813377,-78.88276,27519,2066980875,"Cary","WAKE","NC","US"
367,"730 Waterford Lake Dr #730",35.81417,-78.90407,27519,2087269696,"Cary","WAKE","NC","US"
368,"210 Bell Arthur Dr",35.771706,-78.84917,27519,6533541,"Cary","WAKE","NC","US"
369,"712 Quartz Crystal Pl",35.820415,-78.910645,27519,79884042,"Cary","WAKE","NC","US"
370,"8520 Broderick Pl",35.781376,-78.906235,27519,122281411,"Cary","WAKE","NC","US"
371,"4158 Vallonia Dr",35.842476,-78.89602,27519,133700249,"Cary","WAKE","NC","US"
372,"803 Toulouse Court Carpenter Sq LOT 45",35.842476,-78.89602,27519,2058065174,"Cary","WAKE","NC","US"
373,"809 Toulouse Court Carpenter Sq LOT 48",35.842476,-78.89602,27519,2058997442,"Cary","WAKE","NC","US"
374,"522 Waterford Lake Dr #522",35.842476,-78.89602,27519,2065064055,"Cary","WAKE","NC","US"
375,"309 Madison Grove Pl",35.821213,-78.8548,27519,50104976,"Cary","WAKE","NC","US"
376,"106 Great Lake Dr",35.814342,-78.85971,27519,6553136,"Cary","WAKE","NC","US"
377,"1317 Seattle Slew Ln",35.824368,-78.91537,27519,89796713,"Cary","WAKE","NC","US"
378,"933 Portstewart Dr",35.813164,-78.905876,27519,215485405,"Cary","WAKE","NC","US"
379,"508 Maybank Pl",35.814423,-78.8836,27519,338496752,"Cary","WAKE","NC","US"
380,"508 Maybank Pl #WEL-0421",35.814423,-78.8836,27519,2060616298,"Cary","WAKE","NC","US"
381,"933 Portstewart Dr #933",35.813164,-78.905876,27519,2078989216,"Cary","WAKE","NC","US"
382,"210 Martins Point Pl",35.774857,-78.85818,27519,6547951,"Cary","WAKE","NC","US"
383,"5628 Cary Glen Blvd",35.80916,-78.91557,27519,65330329,"Cary","WAKE","NC","US"
384,"105 Opera Ct",35.7727,-78.880394,27519,82676357,"Cary","WAKE","NC","US"
385,"521 Mesquite Ridge Pl",35.84613,-78.901115,27519,89798892,"Cary","WAKE","NC","US"
386,"718 Grace Hodge Dr",35.8147,-78.86965,27519,92424505,"Cary","WAKE","NC","US"
387,"708 Eldridge Loop",35.83741,-78.91904,27519,114001816,"Cary","WAKE","NC","US"
388,"522 Waterford Lake Dr",35.8146,-78.905205,27519,132092485,"Cary","WAKE","NC","US"
389,"204 Hardenbrook Ct",35.80687,-78.85131,27519,50105312,"Cary","WAKE","NC","US"
390,"501 Simbury Glen Ct",35.82391,-78.8894,27519,94724080,"Cary","WAKE","NC","US"
391,"836 Blackfriars Loop",35.839073,-78.91732,27519,121757247,"Cary","WAKE","NC","US"
392,"4228 Vallonia Dr",35.841946,-78.89835,27519,215485642,"Cary","WAKE","NC","US"
393,"2817 Thompson Bluff Dr",35.815674,-78.87611,27519,331649024,"Cary","WAKE","NC","US"
394,"101 Highfalls Ct",35.773567,-78.85715,27519,6546236,"Cary","WAKE","NC","US"
395,"307 Madison Grove Pl",35.82114,-78.85482,27519,50106155,"Cary","WAKE","NC","US"
396,"318 Madison Grove Pl",35.82139,-78.85423,27519,50109028,"Cary","WAKE","NC","US"
397,"1013 Rosepine Dr",35.84079,-78.896545,27519,124269068,"Cary","WAKE","NC","US"
398,"722 Toulouse Court Carpenter Sq LOT 31",35.84079,-78.896545,27519,2059514379,"Cary","WAKE","NC","US"
399,"202 Poplar Branch Ln",35.81811,-78.85229,27519,50105602,"Cary","WAKE","NC","US"
400,"3147 Rapid Falls Rd",35.833363,-78.85032,27519,81436035,"Cary","WAKE","NC","US"
401,"10224 Green Level Church Rd",35.824062,-78.90172,27519,248747964,"Cary","WAKE","NC","US"
402,"716 Toulouse Court Carpenter Sq LOT 28",35.824062,-78.90172,27519,2059514247,"Cary","WAKE","NC","US"
403,"6802 Doddridge Ln #42",35.824062,-78.90172,27519,2058995136,"Cary","WAKE","NC","US"
404,"1309 Rosepine Dr #18",35.824062,-78.90172,27519,2063069735,"Cary","WAKE","NC","US"
405,"104 Maude Ct",35.81653,-78.869484,27519,89797588,"Cary","WAKE","NC","US"
406,"800 Gathering Park Cir",35.82205,-78.85582,27519,248751720,"Cary","WAKE","NC","US"
407,"724 Toulouse Court Carpenter Sq LOT 32",35.82205,-78.85582,27519,2059071777,"Cary","WAKE","NC","US"
408,"800 Gathering Park Cir SUITE 303",35.822094,-78.85582,27519,2079730059,"Cary","WAKE","NC","US"
409,"216 Longchamp Ln",35.82566,-78.91283,27519,81760969,"Cary","WAKE","NC","US"
410,"533 Bosworth Pl",35.824524,-78.924255,27519,126465666,"Cary","WAKE","NC","US"
411,"103 Cove Creek Dr",35.77128,-78.847336,27519,6535400,"Cary","WAKE","NC","US"
412,"204 Bridgegate Dr",35.810246,-78.91391,27519,65341984,"Cary","WAKE","NC","US"
413,"4102 Overcup Oak Ln",35.832283,-78.90994,27519,122284461,"Cary","WAKE","NC","US"
414,"1041 Upchurch Farm Ln",35.779144,-78.85621,27519,65339489,"Cary","WAKE","NC","US"
415,"102 Grendon Pl",35.78527,-78.85663,27519,83955281,"Cary","WAKE","NC","US"
416,"600 Fumagalli Dr",35.810665,-78.90456,27519,215485324,"Cary","WAKE","NC","US"
417,"909 Merrifield Dr",35.815975,-78.880295,27519,305120771,"Cary","WAKE","NC","US"
418,"100 Blue Boar Ct",35.770054,-78.84944,27519,60532869,"Cary","WAKE","NC","US"
419,"467 Autumn Rain St #61",35.770054,-78.84944,27519,2059602687,"Cary","WAKE","NC","US"
420,"1816 Porch Way #16",35.770054,-78.84944,27519,2063021512,"Cary","WAKE","NC","US"
421,"104 Great Lake Dr",35.814243,-78.85968,27519,6553137,"Cary","WAKE","NC","US"
422,"707 Bradhurst Pl",35.843952,-78.91591,27519,121755723,"Cary","WAKE","NC","US"
423,"1107 Kiernan Grove Ln",35.773777,-78.87198,27519,336867345,"Cary","WAKE","NC","US"
424,"1413 Rich Inlet Ct",35.773777,-78.87198,27519,2058210427,"Cary","WAKE","NC","US"
425,"1409 Rich Inlet Ct",35.773777,-78.87198,27519,2058211172,"Cary","WAKE","NC","US"
426,"500 Maybank Pl #WEL-423",35.773777,-78.87198,27519,2060278535,"Cary","WAKE","NC","US"
427,"1107 Kiernan Grove Ln LOT 38",35.773777,-78.87198,27519,2063051423,"Cary","WAKE","NC","US"
428,"417 Candlebrook Ln #WEL-0404",35.773777,-78.87198,27519,2067257026,"Cary","WAKE","NC","US"
429,"1252 Corkery Ridge Ct",35.773777,-78.87198,27519,2067742318,"Cary","WAKE","NC","US"
430,"279 Joshua Glen Ln",35.779854,-78.85516,27519,65342052,"Cary","WAKE","NC","US"
431,"3016 Remington Oaks Cir",35.822296,-78.916885,27519,79886039,"Cary","WAKE","NC","US"
432,"755 Blossom Grove Dr",35.82403,-78.89966,27519,89796794,"Cary","WAKE","NC","US"
433,"640 Sealine Dr",35.81286,-78.91787,27519,114481445,"Cary","WAKE","NC","US"
434,"341 Bolton Grant Dr",35.831326,-78.90085,27519,133701376,"Cary","WAKE","NC","US"
435,"1125 Zagora Ln",35.832794,-78.89769,27519,305124947,"Cary","WAKE","NC","US"
436,"500 Maybank Pl",35.814358,-78.88311,27519,336869294,"Cary","WAKE","NC","US"
437,"1621 Clayfire Dr",35.838318,-78.8824,27519,338498710,"Cary","WAKE","NC","US"
438,"313 Samu Ct",35.77651,-78.855034,27519,338499266,"Cary","WAKE","NC","US"
439,"108 Walcott Way",35.808735,-78.85724,27519,6548358,"Cary","WAKE","NC","US"
440,"1021 Ventnor Pl",35.828793,-78.91691,27519,84510622,"Cary","WAKE","NC","US"
441,"415 Heralds Way",35.828102,-78.91107,27519,113105241,"Cary","WAKE","NC","US"
442,"1021 Holland Bend Dr",35.800316,-78.90283,27519,122060063,"Cary","WAKE","NC","US"
443,"8720 Green Level Church Rd",35.788757,-78.90213,27519,338500711,"Cary","WAKE","NC","US"
444,"1319 Rosepine Dr #21",35.788757,-78.90213,27519,2063066412,"Cary","WAKE","NC","US"
445,"7019 Roberts Rd",35.761177,-78.887596,27519,6393262,"Cary","WAKE","NC","US"
446,"111 Potomac Grove Pl",35.82138,-78.85522,27519,65336307,"Cary","WAKE","NC","US"
447,"309 Millsfield Dr",35.804092,-78.88297,27519,79884507,"Cary","WAKE","NC","US"
448,"1805 Porch Way #12",35.804092,-78.88297,27519,2060121746,"Cary","WAKE","NC","US"
449,"105 Ashmore Dr",35.815628,-78.85304,27519,50109501,"Cary","WAKE","NC","US"
450,"1104 Ventnor Pl",35.828907,-78.918755,27519,84510570,"Cary","WAKE","NC","US"
451,"1543 Kiln Ct",35.8385,-78.88373,27519,338499344,"Cary","WAKE","NC","US"
452,"809 Endhaven Pl",35.82691,-78.916115,27519,84511072,"Cary","WAKE","NC","US"
453,"603 Mount Blanc Way Carpenter Sq LOT 59",35.82691,-78.916115,27519,2060162654,"Cary","WAKE","NC","US"
454,"1355 Rosepine Dr #31",35.82691,-78.916115,27519,2062593835,"Cary","WAKE","NC","US"
455,"406 Fryar Creek Dr",35.774597,-78.86758,27519,6561968,"Cary","WAKE","NC","US"
456,"4121 Mahal Ave",35.836494,-78.879906,27519,305126771,"Cary","WAKE","NC","US"
457,"1451 Rosepine Dr",35.837048,-78.89098,27519,336868109,"Cary","WAKE","NC","US"
458,"1359 Rosepine Dr",35.837048,-78.89098,27519,2059543035,"Cary","WAKE","NC","US"
459,"1451 Rosepine Dr #51",35.837048,-78.89098,27519,2062591492,"Cary","WAKE","NC","US"
460,"4102 Plum Branch Dr",35.83755,-78.893394,27519,119341836,"Cary","WAKE","NC","US"
461,"2834 Cameron Pond Dr",35.82428,-78.89101,27519,71899000,"Cary","WAKE","NC","US"
462,"4008 Robious Ct",35.807095,-78.886826,27519,133701012,"Cary","WAKE","NC","US"
463,"1227 Corkery Ridge Ct",35.77412,-78.87246,27519,336867007,"Cary","WAKE","NC","US"
464,"473 Autumn Rain St #58",35.77412,-78.87246,27519,2060652323,"Cary","WAKE","NC","US"
465,"5017 Lake Grove Blvd",35.82992,-78.84534,27519,81764780,"Cary","WAKE","NC","US"
466,"603 Mercer Grant Dr",35.82314,-78.88634,27519,122278436,"Cary","WAKE","NC","US"
467,"1145 Canyon Shadows Ct",35.834805,-78.9076,27519,305122517,"Cary","WAKE","NC","US"
468,"489 Autumn Rain St #51",35.834805,-78.9076,27519,2059261088,"Cary","WAKE","NC","US"
469,"611 Mount Blanc Way Carpenter Sq LOT 63",35.834805,-78.9076,27519,2060180038,"Cary","WAKE","NC","US"
470,"469 Autumn Rain St #60",35.834805,-78.9076,27519,2060646687,"Cary","WAKE","NC","US"
471,"6910 Doddridge Ln #51",35.834805,-78.9076,27519,2062690062,"Cary","WAKE","NC","US"
472,"116 Lantern Ridge Ln",35.811504,-78.90686,27519,65330401,"Cary","WAKE","NC","US"
473,"763 Finnbar Dr",35.84224,-78.91109,27519,114001863,"Cary","WAKE","NC","US"
474,"912 River Bark Pl",35.81897,-78.87735,27519,248751520,"Cary","WAKE","NC","US"
475,"1133 Chapanoke Rd",35.73682,-78.66139,27603,122276203,"Raleigh","WAKE","NC","US"
476,"1111 Ileagnes Rd",35.73778,-78.65378,27603,114329201,"Raleigh","WAKE","NC","US"
477,"2010 Quaker Lndg APT 302",35.753166,-78.66556,27603,132184393,"Raleigh","WAKE","NC","US"
478,"204 Crosspine Dr",35.717407,-78.64909,27603,6524019,"Raleigh","WAKE","NC","US"
479,"2204 Center Spring Ct",35.666355,-78.71192,27603,79886148,"Raleigh","WAKE","NC","US"
480,"237 Pecan Rd",35.748253,-78.64678,27603,6387811,"Raleigh","WAKE","NC","US"
481,"1604 Harvey Johnson Rd",35.628345,-78.66305,27603,50118289,"Raleigh","WAKE","NC","US"
482,"1036 Widgeon Way",35.61772,-78.67712,27603,124893825,"Raleigh","WAKE","NC","US"
483,"3770 Pardue Woods Pl APT 103",35.749638,-78.69658,27603,132167883,"Raleigh","WAKE","NC","US"
484,"2021 Wolftech Ln APT 301",35.749523,-78.69563,27603,132183094,"Raleigh","WAKE","NC","US"
485,"5706 Kalamata Dr LOT 105",35.749523,-78.69563,27603,2060362243,"Raleigh","WAKE","NC","US"
486,"2801 Crestline Ave",35.7425,-78.66631,27603,6376979,"Raleigh","WAKE","NC","US"
487,"105 Forestchase Ct",35.717648,-78.648994,27603,6524017,"Raleigh","WAKE","NC","US"
488,"609 Jordan Ridge Ln",35.603657,-78.624275,27603,6546192,"Raleigh","WAKE","NC","US"
489,"6009 Yankee St",35.61452,-78.62988,27603,122277021,"Raleigh","WAKE","NC","US"
490,"3813 Table Rock Dr",35.61452,-78.62988,27603,2060748436,"Raleigh","WAKE","NC","US"
491,"5413 Holland Farms Way",35.6343,-78.65099,27603,6523878,"Raleigh","WAKE","NC","US"
492,"1920 Betry Pl",35.744507,-78.66977,27603,60396239,"Raleigh","WAKE","NC","US"
493,"2020 Quaker Lndg APT 204",35.752903,-78.666145,27603,132184378,"Raleigh","WAKE","NC","US"
494,"5801 Hampton Ridge Rd",35.61883,-78.65528,27603,6494494,"Raleigh","WAKE","NC","US"
495,"9401 Northfield Ct",35.620453,-78.63121,27603,50100117,"Raleigh","WAKE","NC","US"
496,"5936 Lunenburg Dr",35.611923,-78.67128,27603,215488484,"Raleigh","WAKE","NC","US"
497,"617 Velma Hopkins Ln",35.760387,-78.6561,27603,248742248,"Raleigh","WAKE","NC","US"
498,"380 Amber Acorn Ave",35.664036,-78.69203,27603,305127839,"Raleigh","WAKE","NC","US"
499,"4108 Cross Timber Ln",35.664036,-78.69203,27603,2060349912,"Raleigh","WAKE","NC","US"
500,"4320 State Highway 42",35.664036,-78.69203,27603,2061668667,"Raleigh","WAKE","NC","US"
501,"728 Oak Rd",35.747852,-78.66037,27603,6410641,"Raleigh","WAKE","NC","US"
502,"234 Mediate Dr",35.666386,-78.6637,27603,65330265,"Raleigh","WAKE","NC","US"
503,"1357 Still Monument Way",35.735054,-78.6564,27603,81747628,"Raleigh","WAKE","NC","US"
504,"834 Cupola Dr",35.731598,-78.6583,27603,120876316,"Raleigh","WAKE","NC","US"
505,"1900 Trailwood Heights Ln UNIT 203",35.751385,-78.686584,27603,132183490,"Raleigh","WAKE","NC","US"
506,"618 N Boylan Ave SUITE 622",35.787586,-78.64864,27603,132221175,"Raleigh","WAKE","NC","US"
507,"622 Velma Hopkins Ln",35.760735,-78.656364,27603,248742242,"Raleigh","WAKE","NC","US"
508,"615 Maywood Ave",35.760952,-78.65623,27603,248742246,"Raleigh","WAKE","NC","US"
509,"6457 Camellia Creek Dr",35.607887,-78.67834,27603,336869566,"Raleigh","WAKE","NC","US"
510,"2225 Hedge Maple Dr",35.66612,-78.70689,27603,338500647,"Raleigh","WAKE","NC","US"
511,"2225 Hedge Maple Dr LOT 48",35.66612,-78.70689,27603,2057944350,"Raleigh","WAKE","NC","US"
512,"4200 Cross Timber Ln",35.66612,-78.70689,27603,2058485776,"Raleigh","WAKE","NC","US"
513,"10913 Fanny Brown Rd",35.618523,-78.68617,27603,6516851,"Raleigh","WAKE","NC","US"
514,"607 Seastone St",35.6635,-78.673584,27603,53456774,"Raleigh","WAKE","NC","US"
515,"805 Cupola Dr",35.73199,-78.6592,27603,89799181,"Raleigh","WAKE","NC","US"
516,"421 Provincial St",35.73824,-78.65329,27603,133704980,"Raleigh","WAKE","NC","US"
517,"6012 Renewal Pl #1274",35.73824,-78.65329,27603,2058458479,"Raleigh","WAKE","NC","US"
518,"4208 Cross Timber Ln",35.73824,-78.65329,27603,2058477537,"Raleigh","WAKE","NC","US"
519,"6016 Renewal Pl #1276",35.73824,-78.65329,27603,2058731998,"Raleigh","WAKE","NC","US"
520,"2400 Hedge Maple Dr LOT 62",35.73824,-78.65329,27603,2060138675,"Raleigh","WAKE","NC","US"
521,"5830 Agrinio Way LOT RC-9",35.73824,-78.65329,27603,2062372574,"Raleigh","WAKE","NC","US"
522,"3117 Tryon Rd",35.743004,-78.68747,27603,6404808,"Raleigh","WAKE","NC","US"
523,"3116 Fields Dr",35.66629,-78.68969,27603,6436073,"Raleigh","WAKE","NC","US"
524,"6804 Pinnacle Ridge Rd",35.58968,-78.63353,27603,6532523,"Raleigh","WAKE","NC","US"
525,"510 Glenwood Ave APT 504",35.786827,-78.64666,27603,132221239,"Raleigh","WAKE","NC","US"
526,"615 Velma Hopkins Ln",35.760372,-78.65596,27603,248742249,"Raleigh","WAKE","NC","US"
527,"4204 Cross Timber Ln",35.760372,-78.65596,27603,2058469239,"Raleigh","WAKE","NC","US"
528,"5045 Chase Hill Way",35.760372,-78.65596,27603,2062438161,"Raleigh","WAKE","NC","US"
529,"2109 Howson Rd",35.64242,-78.71976,27603,6487677,"Raleigh","WAKE","NC","US"
530,"1136 Chapanoke Rd",35.73643,-78.66165,27603,82667830,"Raleigh","WAKE","NC","US"
531,"2031 Wolfmill Dr #301",35.74931,-78.6969,27603,132167877,"Raleigh","WAKE","NC","US"
532,"5017 Chase Hill Way",35.74931,-78.6969,27603,2062765506,"Raleigh","WAKE","NC","US"
533,"2250 Plum Frost Dr",35.744762,-78.67196,27603,60396178,"Raleigh","WAKE","NC","US"
534,"1026 Ileagnes Rd",35.738724,-78.65486,27603,118202506,"Raleigh","WAKE","NC","US"
535,"6409 Camellia Creek Dr",35.605137,-78.67622,27603,338498342,"Raleigh","WAKE","NC","US"
536,"9824 Sauls Rd",35.605137,-78.67622,27603,2058734862,"Raleigh","WAKE","NC","US"
537,"9832 Sauls Rd",35.605137,-78.67622,27603,2058734865,"Raleigh","WAKE","NC","US"
538,"9836 Sauls Rd",35.605137,-78.67622,27603,2058734875,"Raleigh","WAKE","NC","US"
539,"2305 Hedge Maple Dr LOT 51",35.605137,-78.67622,27603,2061366074,"Raleigh","WAKE","NC","US"
540,"134 Maywood Ave",35.761124,-78.64692,27603,6419883,"Raleigh","WAKE","NC","US"
541,"1340 Revolution Cir",35.737038,-78.65906,27603,133207796,"Raleigh","WAKE","NC","US"
542,"710 Independence Pl UNIT 208",35.778362,-78.65002,27603,215486294,"Raleigh","WAKE","NC","US"
543,"710 Independence Pl #208/2C",35.778362,-78.65002,27603,2058736169,"Raleigh","WAKE","NC","US"
544,"4017 Table Rock Dr LOT 132",35.778362,-78.65002,27603,2058912782,"Raleigh","WAKE","NC","US"
545,"400 Provincial St",35.73892,-78.65309,27603,119901326,"Raleigh","WAKE","NC","US"
546,"4112 Cross Timber Ln",35.73892,-78.65309,27603,2060349913,"Raleigh","WAKE","NC","US"
547,"5005 Runon Cir",35.642426,-78.71481,27603,6487666,"Raleigh","WAKE","NC","US"
548,"1600 Pagan Rd",35.618732,-78.653046,27603,6527453,"Raleigh","WAKE","NC","US"
549,"721 Parkham Ln",35.779034,-78.651375,27603,50116884,"Raleigh","WAKE","NC","US"
550,"8928 Carolina Marlin Ct",35.63666,-78.64352,27603,65336846,"Raleigh","WAKE","NC","US"
551,"1616 Wynne Trace Ct",35.62901,-78.66769,27603,119341893,"Raleigh","WAKE","NC","US"
552,"1501 Tawny View Ln",35.614784,-78.692245,27603,331653909,"Raleigh","WAKE","NC","US"
553,"612 Lakeview Dr",35.702778,-78.64513,27603,6416412,"Raleigh","WAKE","NC","US"
554,"30 Natalie Dr",35.58316,-78.62375,27603,69114344,"Raleigh","WAKE","NC","US"
555,"2800 Wyncote Dr",35.743793,-78.65081,27603,6427774,"Raleigh","WAKE","NC","US"
556,"729 Parkham Ln",35.77905,-78.65161,27603,50116880,"Raleigh","WAKE","NC","US"
557,"109 Ryder Cup Cir",35.667336,-78.66334,27603,68317928,"Raleigh","WAKE","NC","US"
558,"605 Maywood Ave",35.760895,-78.65568,27603,248742282,"Raleigh","WAKE","NC","US"
559,"1412 Banks Brooke Dr",35.645344,-78.700035,27603,336867826,"Raleigh","WAKE","NC","US"
560,"296 Freewill Pl",35.645344,-78.700035,27603,2061226972,"Raleigh","WAKE","NC","US"
561,"1412 Banks Brooke Dr LOT 154",35.645344,-78.700035,27603,2061340954,"Raleigh","WAKE","NC","US"
562,"1616 Thompson St",35.758965,-78.65091,27603,6413918,"Raleigh","WAKE","NC","US"
563,"216 Misty Pike Dr",35.663166,-78.69352,27603,305127808,"Raleigh","WAKE","NC","US"
564,"5717 Volos Ave LOT 57",35.663166,-78.69352,27603,2061188100,"Raleigh","WAKE","NC","US"
565,"1240 Shadowbark Ct",35.718155,-78.6519,27603,6522099,"Raleigh","WAKE","NC","US"
566,"7418 State Highway 42 W",35.59309,-78.60408,27603,69125754,"Raleigh","WAKE","NC","US"
567,"9809 Chris Dr",35.64619,-78.69327,27603,132347082,"Raleigh","WAKE","NC","US"
568,"4316 State Highway 42",35.64619,-78.69327,27603,2062142845,"Raleigh","WAKE","NC","US"
569,"6245 Oak Passage Dr",35.64619,-78.69327,27603,2061753204,"Raleigh","WAKE","NC","US"
570,"80 Hobby Ct",35.584557,-78.621506,27603,69121323,"Raleigh","WAKE","NC","US"
571,"6000 Catandpolly Ln",35.60823,-78.64285,27603,89797944,"Raleigh","WAKE","NC","US"
572,"429 S Meadow Rd",35.621494,-78.650764,27603,6512706,"Raleigh","WAKE","NC","US"
573,"1001 Minnie Dr",35.65878,-78.643555,27603,50105937,"Raleigh","WAKE","NC","US"
574,"1052 Blue River Farm Dr",35.634438,-78.62492,27603,69565547,"Raleigh","WAKE","NC","US"
575,"811 Cupola Dr",35.731987,-78.65902,27603,89797834,"Raleigh","WAKE","NC","US"
576,"9900 Sauls Rd",35.610657,-78.63502,27603,133205492,"Raleigh","WAKE","NC","US"
577,"9900 Sauls Rd",35.610657,-78.63502,27603,338500918,"Raleigh","WAKE","NC","US"
578,"2930 Fairway Dr",35.73975,-78.66783,27603,6421116,"Raleigh","WAKE","NC","US"
579,"2605 Courier Ct",35.754116,-78.67827,27603,6476508,"Raleigh","WAKE","NC","US"
580,"1109 Harper Rd",35.74616,-78.66305,27603,6507712,"Raleigh","WAKE","NC","US"
581,"6452 Camellia Creek Dr",35.60719,-78.67738,27603,336866934,"Raleigh","WAKE","NC","US"
582,"5244 Carrier Way",35.6305,-78.6772,27603,6506135,"Raleigh","WAKE","NC","US"
583,"3013 Alder Ridge Ln",35.74688,-78.683815,27603,6551535,"Raleigh","WAKE","NC","US"
584,"2109 Saturn St",35.75267,-78.66961,27603,6437361,"Raleigh","WAKE","NC","US"
585,"3304 Highgate Rd",35.63369,-78.69959,27603,6499186,"Raleigh","WAKE","NC","US"
586,"2230 Trailwood Valley Cir",35.752502,-78.684364,27603,50121665,"Raleigh","WAKE","NC","US"
587,"100 Mickleson Ridge Dr",35.668957,-78.676704,27603,65343375,"Raleigh","WAKE","NC","US"
588,"2801 Trailwood Pines Ln UNIT 202",35.751705,-78.68488,27603,132183603,"Raleigh","WAKE","NC","US"
589,"6112 Morning Glory Dr",35.751705,-78.68488,27603,2060502925,"Raleigh","WAKE","NC","US"
590,"617 Locust Ln",35.705917,-78.64837,27603,6413635,"Raleigh","WAKE","NC","US"
591,"1929 Tischer Rd",35.746464,-78.674,27603,6531988,"Raleigh","WAKE","NC","US"
592,"1128 Vannstone Dr",35.610672,-78.67992,27603,6543705,"Raleigh","WAKE","NC","US"
593,"5012 Contender Dr",35.63549,-78.64383,27603,65336841,"Raleigh","WAKE","NC","US"
594,"181 Mickleson Ridge Dr",35.667088,-78.67618,27603,65339172,"Raleigh","WAKE","NC","US"
595,"6121 Catandpolly Ln",35.6071,-78.639336,27603,122229725,"Raleigh","WAKE","NC","US"
596,"710 Independence Pl",35.778362,-78.65002,27603,215486282,"Raleigh","WAKE","NC","US"
597,"710 Independence Pl UNIT 503",35.778362,-78.65002,27603,215486317,"Raleigh","WAKE","NC","US"
598,"8904 Ransdell Rd",35.654236,-78.71574,27603,6447390,"Raleigh","WAKE","NC","US"
599,"6016 Colonial Dr",35.697742,-78.644424,27603,6404059,"Raleigh","WAKE","NC","US"
600,"71 Alfred Ct",35.572052,-78.61223,27603,69121325,"Raleigh","WAKE","NC","US"
601,"104 Oak Top Ct",35.714893,-78.64806,27603,6523762,"Raleigh","WAKE","NC","US"
602,"4201 Rockside Hills Dr",35.579155,-78.64096,27603,6543513,"Raleigh","WAKE","NC","US"
603,"125 Chalcedony St",35.66262,-78.66553,27603,65330249,"Raleigh","WAKE","NC","US"
604,"1111 Consortium Dr UNIT 107",35.738026,-78.6532,27603,89493556,"Raleigh","WAKE","NC","US"
605,"1320 Formal Garden Way",35.738117,-78.65929,27603,111612008,"Raleigh","WAKE","NC","US"
606,"2108 Meadowlane Dr",35.68176,-78.67362,27603,133201791,"Raleigh","WAKE","NC","US"
607,"5101 Chase Hill Way W",35.68176,-78.67362,27603,2062438165,"Raleigh","WAKE","NC","US"
608,"1033 Southern Oaks Dr",35.619892,-78.685165,27603,6519190,"Raleigh","WAKE","NC","US"
609,"2410 Hedge Maple Dr LOT 66",35.619892,-78.685165,27603,2060138346,"Raleigh","WAKE","NC","US"
610,"5720 Kalamata Dr LOT RC-98",35.619892,-78.685165,27603,2060485499,"Raleigh","WAKE","NC","US"
611,"5714 Volos Ave LOT 76",35.619892,-78.685165,27603,2060485843,"Raleigh","WAKE","NC","US"
612,"800 Elbridge Dr",35.615654,-78.66822,27603,6537863,"Raleigh","WAKE","NC","US"
613,"266 Inkster Cv",35.663742,-78.66449,27603,53457652,"Raleigh","WAKE","NC","US"
614,"5109 Chase Hill Way",35.663742,-78.66449,27603,2060349914,"Raleigh","WAKE","NC","US"
615,"405 Starkey St",35.739586,-78.653694,27603,122199719,"Raleigh","WAKE","NC","US"
616,"2818 Crestline Ave",35.742184,-78.66745,27603,6376297,"Raleigh","WAKE","NC","US"
617,"5149 Shield Cir",35.68385,-78.66351,27603,6473098,"Raleigh","WAKE","NC","US"
618,"6012 Wolverhampton Dr",35.614,-78.65607,27603,6516001,"Raleigh","WAKE","NC","US"
619,"3001 Trailwood Pines Ln UNIT 302",35.751835,-78.68692,27603,132183421,"Raleigh","WAKE","NC","US"
620,"68 Old Hickory Dr",35.58884,-78.61625,27603,337080118,"Raleigh","WAKE","NC","US"
621,"76 Freewill Pl",35.58884,-78.61625,27603,2061838838,"Raleigh","WAKE","NC","US"
622,"221 Old Hickory Dr",35.58884,-78.61625,27603,2062081021,"Raleigh","WAKE","NC","US"
623,"5025 Chase Hill Way",35.58884,-78.61625,27603,2062466055,"Raleigh","WAKE","NC","US"
624,"5037 Chase Hill Way",35.58884,-78.61625,27603,2062466058,"Raleigh","WAKE","NC","US"
625,"1124 Shadywood Ln",35.647488,-78.63125,27603,6494236,"Raleigh","WAKE","NC","US"
626,"4224 Landsburg Dr",35.659176,-78.68554,27603,6531909,"Raleigh","WAKE","NC","US"
627,"2744 Layden St",35.744846,-78.642914,27603,6423605,"Raleigh","WAKE","NC","US"
628,"8820 Reigate Ln",35.65407,-78.709564,27603,6496189,"Raleigh","WAKE","NC","US"
629,"1709 Sierra Dr",35.7496,-78.664925,27603,6501251,"Raleigh","WAKE","NC","US"
630,"612 Poplar Springs Church Rd",35.69655,-78.65109,27603,6432155,"Raleigh","WAKE","NC","US"
631,"6109 Jordan Woods Dr",35.605743,-78.6248,27603,6509939,"Raleigh","WAKE","NC","US"
632,"2601 Whippletree Dr",35.707012,-78.68762,27603,6518109,"Raleigh","WAKE","NC","US"
633,"8850 Thornton Town Pl",35.898296,-78.55195,27616,82677188,"Raleigh","WAKE","NC","US"
634,"6628 Clarksburg Pl",35.86729,-78.59079,27616,88946725,"Raleigh","WAKE","NC","US"
635,"3717 Althorp Dr",35.89465,-78.519356,27616,122276253,"Raleigh","WAKE","NC","US"
636,"3259 Longleaf Estates Dr",35.905052,-78.51746,27616,305118040,"Raleigh","WAKE","NC","US"
637,"6018 Kayton St",35.858818,-78.535385,27616,305125514,"Raleigh","WAKE","NC","US"
638,"3229 Landing Falls Ln",35.872784,-78.52394,27616,67558966,"Raleigh","WAKE","NC","US"
639,"8334 Plano Ct",35.894646,-78.537994,27616,82670303,"Raleigh","WAKE","NC","US"
640,"3944 Mountjoy Trl",35.88942,-78.50099,27616,2059041739,"Raleigh","WAKE","NC","US"
641,"7308 Carlton Dr",35.875626,-78.54312,27616,6390873,"Raleigh","WAKE","NC","US"
642,"5225 Holly Ridge Farm Rd",35.84891,-78.54151,27616,70487284,"Raleigh","WAKE","NC","US"
643,"3948 Mountjoy Trl",35.889603,-78.50088,27616,2059442906,"Raleigh","WAKE","NC","US"
644,"3608 Norway Ct",35.881912,-78.521736,27616,6525932,"Raleigh","WAKE","NC","US"
645,"5604 Rolling Ct",35.85721,-78.56902,27616,6557076,"Raleigh","WAKE","NC","US"
646,"5209 Cambridge Knoll Way",35.85721,-78.56902,27616,2057713761,"Raleigh","WAKE","NC","US"
647,"5728 Apalachicula Dr",35.88848,-78.54431,27616,60398329,"Raleigh","WAKE","NC","US"
648,"5451 Patuxent Dr",35.886726,-78.551674,27616,62038505,"Raleigh","WAKE","NC","US"
649,"8565 Quarton Dr",35.896248,-78.50901,27616,111599921,"Raleigh","WAKE","NC","US"
650,"7804 Elmshire Way",35.839413,-78.503525,27616,133700308,"Raleigh","WAKE","NC","US"
651,"8016 River Gold Ln",35.878166,-78.53447,27616,71898648,"Raleigh","WAKE","NC","US"
652,"2814 Corbett Grove Dr",35.897022,-78.510956,27616,81435641,"Raleigh","WAKE","NC","US"
653,"3828 Old Milburnie Rd",35.85741,-78.49547,27616,336867671,"Raleigh","WAKE","NC","US"
654,"8224 Aldous Way",35.85741,-78.49547,27616,2059811133,"Raleigh","WAKE","NC","US"
655,"7008 Perry Creek Rd",35.877075,-78.54056,27616,6479034,"Raleigh","WAKE","NC","US"
656,"4010 Tilton Dr",35.89433,-78.51412,27616,114481556,"Raleigh","WAKE","NC","US"
657,"3804 Tresco Xing",35.893032,-78.51741,27616,125245762,"Raleigh","WAKE","NC","US"
658,"7814 Averette Field Dr",35.877235,-78.534874,27616,79883389,"Raleigh","WAKE","NC","US"
659,"3519 Winding Walk Ct",35.866405,-78.52289,27616,125091532,"Raleigh","WAKE","NC","US"
660,"6344 Perry Creek Rd #1343",35.866405,-78.52289,27616,2059287293,"Raleigh","WAKE","NC","US"
661,"3901 Tresco Crsg",35.892963,-78.51689,27616,122278878,"Raleigh","WAKE","NC","US"
662,"8512 Quarton Dr",35.895164,-78.510185,27616,125165065,"Raleigh","WAKE","NC","US"
663,"7724 Brookdale Dr",35.856964,-78.50892,27616,6427841,"Raleigh","WAKE","NC","US"
664,"8341 Glenwood Springs Ct",35.894257,-78.53998,27616,67555232,"Raleigh","WAKE","NC","US"
665,"8621 Neuse Club Ln APT 100",35.895374,-78.552025,27616,132294872,"Raleigh","WAKE","NC","US"
666,"4220 Dunn Dr",35.8642,-78.563965,27616,6474707,"Raleigh","WAKE","NC","US"
667,"7301 N Thorncliff Pl",35.88152,-78.56845,27616,6479156,"Raleigh","WAKE","NC","US"
668,"5401 Botany Bay Dr",35.866726,-78.55028,27616,6542872,"Raleigh","WAKE","NC","US"
669,"4632 Pooh Corner Dr",35.8622,-78.56519,27616,50115039,"Raleigh","WAKE","NC","US"
670,"5330 Stowecroft Ln",35.83682,-78.54673,27616,80131026,"Raleigh","WAKE","NC","US"
671,"6406 Pathfinder Way",35.847164,-78.536934,27616,336868042,"Raleigh","WAKE","NC","US"
672,"5816 Humanity Ln #2439",35.847164,-78.536934,27616,2058412138,"Raleigh","WAKE","NC","US"
673,"5841 Humanity Ln #2478",NULL,NULL,27616,2059074588,"Raleigh","WAKE","NC","US"
674,"3921 Mountjoy Trl",NULL,NULL,27616,2059823348,"Raleigh","WAKE","NC","US"
675,"5148 Twelvepole Dr",35.889153,-78.55443,27616,67555919,"Raleigh","WAKE","NC","US"
676,"3955 Massey Wood Trl",35.864487,-78.522644,27616,122277380,"Raleigh","WAKE","NC","US"
677,"6404 Pathfinder Way",35.847176,-78.537,27616,336868475,"Raleigh","WAKE","NC","US"
678,"5814 Humanity Ln #2440",35.847176,-78.537,27616,2058322044,"Raleigh","WAKE","NC","US"
679,"3909 Mountjoy Trl",35.847176,-78.537,27616,2059932828,"Raleigh","WAKE","NC","US"
680,"4709 Crescent Square St #1309",35.847176,-78.537,27616,2060436725,"Raleigh","WAKE","NC","US"
681,"5024 Glenmorgan Ln",35.847176,-78.537,27616,2061611447,"Raleigh","WAKE","NC","US"
682,"4608 Ashmont Ct",35.851257,-78.56651,27616,6502965,"Raleigh","WAKE","NC","US"
683,"2201 Ruddy Rd",35.845707,-78.49294,27616,6550729,"Raleigh","WAKE","NC","US"
684,"5216 Mallard Grove Dr",35.851646,-78.55339,27616,50106318,"Raleigh","WAKE","NC","US"
685,"5426 Patuxent Dr",35.887108,-78.55185,27616,60398252,"Raleigh","WAKE","NC","US"
686,"3824 Chokecherry Ln",35.869106,-78.52371,27616,65337958,"Raleigh","WAKE","NC","US"
687,"4817 Castle Hill Rd",35.859398,-78.56432,27616,83961082,"Raleigh","WAKE","NC","US"
688,"6015 Kayton St",35.85848,-78.53563,27616,305117677,"Raleigh","WAKE","NC","US"
689,"5540 River Reach Dr #1254",35.85848,-78.53563,27616,2059925608,"Raleigh","WAKE","NC","US"
690,"3917 Mountjoy Trl",35.85848,-78.53563,27616,2060007240,"Raleigh","WAKE","NC","US"
691,"4821 Sinclair Dr",35.863842,-78.55555,27616,6497516,"Raleigh","WAKE","NC","US"
692,"4412 Pottery Ln",35.854668,-78.568344,27616,50112436,"Raleigh","WAKE","NC","US"
693,"8407 Haines Creek Ln",35.89108,-78.55013,27616,60538273,"Raleigh","WAKE","NC","US"
694,"3913 Mountjoy Trl",35.87805,-78.53336,27616,2059846632,"Raleigh","WAKE","NC","US"
695,"4823 Crescent Square St #2411",35.87805,-78.53336,27616,2060707128,"Raleigh","WAKE","NC","US"
696,"5108 Holly Ridge Farm Rd",35.845684,-78.543915,27616,6461832,"Raleigh","WAKE","NC","US"
697,"4112 Mardela Spring Dr",35.856995,-78.57001,27616,6557080,"Raleigh","WAKE","NC","US"
698,"5012 Brooke Lauren Ln",35.889008,-78.55547,27616,65342692,"Raleigh","WAKE","NC","US"
699,"6913 Outfall Point Ln",35.850185,-78.52717,27616,336867068,"Raleigh","WAKE","NC","US"
700,"4909 R B Dr",35.849255,-78.55912,27616,6463096,"Raleigh","WAKE","NC","US"
701,"4305 Gallatree Ln",35.835503,-78.5584,27616,6552833,"Raleigh","WAKE","NC","US"
702,"4809 Hallam Way",35.87883,-78.56249,27616,53458661,"Raleigh","WAKE","NC","US"
703,"8640 Neuse Landing Ln UNIT 109",35.896206,-78.55128,27616,132295080,"Raleigh","WAKE","NC","US"
704,"5818 Humanity Ln #2438",35.896206,-78.55128,27616,2058431340,"Raleigh","WAKE","NC","US"
705,"6352 Perry Creek Rd #1339",35.896206,-78.55128,27616,2059072966,"Raleigh","WAKE","NC","US"
706,"6304 Musket Ball Ct",35.866066,-78.56101,27616,6524322,"Raleigh","WAKE","NC","US"
707,"4108 Breadfruit Ct",35.873055,-78.5191,27616,6559625,"Raleigh","WAKE","NC","US"
708,"2112 Brilliant Dr",35.832787,-78.49514,27616,53460035,"Raleigh","WAKE","NC","US"
709,"5208 Influence Way",35.858498,-78.53683,27616,331653548,"Raleigh","WAKE","NC","US"
710,"6905 Outfall Point Ln",35.85024,-78.527435,27616,336867290,"Raleigh","WAKE","NC","US"
711,"5813 Empathy Ln #2446",35.85024,-78.527435,27616,2059282666,"Raleigh","WAKE","NC","US"
712,"3605 Castlegate Dr",35.878147,-78.504776,27616,6508373,"Raleigh","WAKE","NC","US"
713,"3564 Dechart Ln",35.884453,-78.5193,27616,6532986,"Raleigh","WAKE","NC","US"
714,"5135 Sandy Banks Rd",35.897423,-78.55193,27616,70486431,"Raleigh","WAKE","NC","US"
715,"8020 Hartham Park Ave",35.896744,-78.52099,27616,122284324,"Raleigh","WAKE","NC","US"
716,"4817 Crescent Square St #2408",35.896744,-78.52099,27616,2060686084,"Raleigh","WAKE","NC","US"
717,"6320 Virgilia Ct",35.87067,-78.5435,27616,50112729,"Raleigh","WAKE","NC","US"
718,"5106 Thornton Knoll Way",35.898903,-78.55158,27616,70394353,"Raleigh","WAKE","NC","US"
719,"6143 Neuse Wood Dr",35.894993,-78.53759,27616,88888638,"Raleigh","WAKE","NC","US"
720,"4825 Crescent Square St #2412",35.894993,-78.53759,27616,2060723414,"Raleigh","WAKE","NC","US"
721,"7313 Berkshire Downs Dr",35.877193,-78.55791,27616,6470294,"Raleigh","WAKE","NC","US"
722,"5221 Neuse Tavern Ct",35.892387,-78.54808,27616,53458491,"Raleigh","WAKE","NC","US"
723,"5210 Stream Stone Way",35.849354,-78.52561,27616,336866367,"Raleigh","WAKE","NC","US"
724,"5040 Glenmorgan Ln",35.849354,-78.52561,27616,2059531588,"Raleigh","WAKE","NC","US"
725,"5217 Country Pines Ct",35.880802,-78.54941,27616,6485817,"Raleigh","WAKE","NC","US"
726,"4447 Antique Ln",35.83443,-78.563225,27616,6558203,"Raleigh","WAKE","NC","US"
727,"3201 Sandy Bluff Rd",35.869553,-78.50581,27616,50110828,"Raleigh","WAKE","NC","US"
728,"8318 Tierra Del Sol Way",35.8943,-78.54039,27616,68317160,"Raleigh","WAKE","NC","US"
729,"5420 Crescent Square St",35.859566,-78.542305,27616,331657075,"Raleigh","WAKE","NC","US"
730,"6617 Pathfinder Way",35.8484,-78.53439,27616,336868262,"Raleigh","WAKE","NC","US"
731,"5422 Crescent Square St",35.860325,-78.54045,27616,338501252,"Raleigh","WAKE","NC","US"
732,"5422 Crescent Square St #3231",35.860325,-78.54045,27616,2059517132,"Raleigh","WAKE","NC","US"
733,"7528 Thebes Dr",35.87765,-78.539856,27616,6545460,"Raleigh","WAKE","NC","US"
734,"8221 Candelaria Dr",35.88774,-78.55453,27616,65345224,"Raleigh","WAKE","NC","US"
735,"3915 Swinton St",35.89322,-78.5152,27616,122283078,"Raleigh","WAKE","NC","US"
736,"5424 Crescent Square St",35.860325,-78.540474,27616,338501251,"Raleigh","WAKE","NC","US"
737,"5226 Beardall St",35.862434,-78.53988,27616,338501259,"Raleigh","WAKE","NC","US"
738,"2432 Pikes Peak Dr",35.862434,-78.53988,27616,2061929065,"Raleigh","WAKE","NC","US"
739,"3718 San Pablo Dr",35.853893,-78.57724,27616,6464271,"Raleigh","WAKE","NC","US"
740,"7232 Ewing Pl",35.87957,-78.56505,27616,6493494,"Raleigh","WAKE","NC","US"
741,"3013 Watkins Town Rd",35.86629,-78.499016,27616,6512349,"Raleigh","WAKE","NC","US"
742,"4708 Sinclair Dr",35.867104,-78.55632,27616,6560964,"Raleigh","WAKE","NC","US"
743,"3029 Watkins Town Rd",35.86692,-78.502785,27616,68321209,"Raleigh","WAKE","NC","US"
744,"8225 Willowglen Dr",35.892048,-78.50559,27616,67558088,"Raleigh","WAKE","NC","US"
745,"3433 Grosbeak Way",35.865864,-78.517334,27616,125274040,"Raleigh","WAKE","NC","US"
746,"3804 Tritonville Way",35.865864,-78.517334,27616,2060266361,"Raleigh","WAKE","NC","US"
747,"5000 Avenida Del Sol Dr",35.852997,-78.57767,27616,6484755,"Raleigh","WAKE","NC","US"
748,"5509 Cardinal Grove Blvd",35.850193,-78.55316,27616,6554836,"Raleigh","WAKE","NC","US"
749,"4637 Malone Ct",35.863743,-78.56491,27616,60397184,"Raleigh","WAKE","NC","US"
750,"8203 Yaxley Hall Dr",35.89694,-78.51771,27616,114329107,"Raleigh","WAKE","NC","US"
751,"6941 Outfall Point Ln",35.84999,-78.52615,27616,336867722,"Raleigh","WAKE","NC","US"
752,"205 Marsh Creek Dr",35.6163,-78.57436,27529,124219295,"Garner","WAKE","NC","US"
753,"153 Colson Dr",35.62554,-78.534775,27529,125275348,"Garner","WAKE","NC","US"
754,"173 Morning Mist Dr",35.57749,-78.58637,27529,82806215,"Garner","WAKE","NC","US"
755,"30 Cliffview Dr",35.615738,-78.559814,27529,304712895,"Garner","WAKE","NC","US"
756,"175 Alderbranch Cir #198",35.615738,-78.559814,27529,2060352287,"Garner","WAKE","NC","US"
757,"206 Harper St #206",35.615738,-78.559814,27529,2075642165,"Garner","WAKE","NC","US"
758,"904 Buckingham Rd",35.692867,-78.62094,27529,6447244,"Garner","WAKE","NC","US"
759,"126 Marianna Pl",35.590485,-78.56159,27529,69126264,"Garner","WAKE","NC","US"
760,"139 Victor Ct",35.573093,-78.51626,27529,84713043,"Garner","WAKE","NC","US"
761,"113 Whitetail Deer Ln",35.659016,-78.5916,27529,331649097,"Garner","WAKE","NC","US"
762,"123 Lilliflora Ln",35.659016,-78.5916,27529,2061784138,"Garner","WAKE","NC","US"
763,"112 Clawson Ct",35.58095,-78.57991,27529,69099853,"Garner","WAKE","NC","US"
764,"233 Southerby Bluffs Ct",35.691322,-78.61163,27529,331655896,"Garner","WAKE","NC","US"
765,"127 Lilliflora Ln",35.691322,-78.61163,27529,2060124269,"Garner","WAKE","NC","US"
766,"246 Oak Br Trl",35.691322,-78.61163,27529,2062186202,"Garner","WAKE","NC","US"
767,"133 Carriage House Trl",35.691505,-78.61953,27529,6488438,"Garner","WAKE","NC","US"
768,"5179 Glen Creek Trl",35.63687,-78.593124,27529,305119936,"Garner","WAKE","NC","US"
769,"164 Wood Orchid Ln",35.63687,-78.593124,27529,2060128112,"Garner","WAKE","NC","US"
770,"115 Lilliflora Ln",35.63687,-78.593124,27529,2061333553,"Garner","WAKE","NC","US"
771,"305 Cinda Dr",35.57405,-78.5631,27529,69092512,"Garner","WAKE","NC","US"
772,"215 Hazy Hills Ln #335",35.57405,-78.5631,27529,2057966946,"Garner","WAKE","NC","US"
773,"103 Lilliflora Ln",35.57405,-78.5631,27529,2061761231,"Garner","WAKE","NC","US"
774,"220 Karlov Rd",35.57405,-78.5631,27529,2062732670,"Garner","WAKE","NC","US"
775,"816 Rainer Ct",35.644897,-78.53188,27529,69102710,"Garner","WAKE","NC","US"
776,"96 Elvis Dr",35.584023,-78.55696,27529,69105955,"Garner","WAKE","NC","US"
777,"104 Berringer Ln",35.627644,-78.55641,27529,69115315,"Garner","WAKE","NC","US"
778,"78 S Birch Creek Way",35.6119,-78.57435,27529,125311791,"Garner","WAKE","NC","US"
779,"7016 S Pine Shadows Dr",35.652065,-78.536385,27529,250040066,"Garner","WAKE","NC","US"
780,"223 Hazy Hills Ln #333",35.652065,-78.536385,27529,2058362664,"Garner","WAKE","NC","US"
781,"1102 Buckingham Rd",35.69031,-78.623055,27529,6440530,"Garner","WAKE","NC","US"
782,"109 Scarlet Green Ct",35.651485,-78.61974,27529,60396650,"Garner","WAKE","NC","US"
783,"110 Dandy Flush Ct",35.591606,-78.58611,27529,245939511,"Garner","WAKE","NC","US"
784,"3612 Cranston Rd",35.72947,-78.61426,27529,6422617,"Garner","WAKE","NC","US"
785,"205 Coachman Dr",35.685104,-78.62514,27529,6445714,"Garner","WAKE","NC","US"
786,"117 Chillingham Rd",35.673203,-78.61644,27529,6503385,"Garner","WAKE","NC","US"
787,"5100 Southern Belle Ln",35.638897,-78.60745,27529,50116621,"Garner","WAKE","NC","US"
788,"127 Polaris Ave",35.608418,-78.58268,27529,304712378,"Garner","WAKE","NC","US"
789,"116 Pronghorn Deer Ct",35.659,-78.594826,27529,336864685,"Garner","WAKE","NC","US"
790,"190 Velvet Ridge Way #243",35.659,-78.594826,27529,2057967001,"Garner","WAKE","NC","US"
791,"196 Madden Rose Loop",35.659,-78.594826,27529,2059548944,"Garner","WAKE","NC","US"
792,"181 Karlov Rd",NULL,NULL,27529,2060524502,"Garner","WAKE","NC","US"
793,"1120 Northview St",35.729485,-78.62045,27529,6376262,"Garner","WAKE","NC","US"
794,"1302 Kelly Rd",35.70088,-78.63248,27529,6383794,"Garner","WAKE","NC","US"
795,"104 Val Del Ct",35.703484,-78.62863,27529,6448846,"Garner","WAKE","NC","US"
796,"380 Coalyard Dr",35.67112,-78.586494,27529,70489216,"Garner","WAKE","NC","US"
797,"251 Shady Hollow Ln",35.68052,-78.61647,27529,113105297,"Garner","WAKE","NC","US"
798,"123 Alta Crest Ln",35.73427,-78.60831,27529,2057908145,"Garner","WAKE","NC","US"
799,"131 Alta Crest Ln",35.73427,-78.60831,27529,2058776285,"Garner","WAKE","NC","US"
800,"160 Wood Orchid Ln",35.59718,-78.55978,27529,2060130280,"Garner","WAKE","NC","US"
801,"420 Cliffview Dr",35.59718,-78.55978,27529,2060669135,"Garner","WAKE","NC","US"
802,"159 Wood Orchid Ln",35.59718,-78.55978,27529,2061205771,"Garner","WAKE","NC","US"
803,"LOT 6 Branch St",35.59718,-78.55978,27529,2061930812,"Garner","WAKE","NC","US"
804,"224 Karlov Rd",35.59718,-78.55978,27529,2062732621,"Garner","WAKE","NC","US"
805,"104 S Shetland Ct",35.6872,-78.62119,27529,6390924,"Garner","WAKE","NC","US"
806,"1010 Southerlund Rd",35.728237,-78.62316,27529,6421628,"Garner","WAKE","NC","US"
807,"203 Lane Of Sir Kay",35.681515,-78.54356,27529,6443340,"Garner","WAKE","NC","US"
808,"1010 Flanders St",35.691,-78.6285,27529,6459898,"Garner","WAKE","NC","US"
809,"5533 Rolling Field Dr",35.631687,-78.60425,27529,6558506,"Garner","WAKE","NC","US"
810,"125 Sambar Deer Ln",35.659096,-78.58972,27529,305127193,"Garner","WAKE","NC","US"
811,"150 Steel Hopper Way",35.671185,-78.590904,27529,81435555,"Garner","WAKE","NC","US"
812,"5266 Cornwallis Rd",35.615185,-78.53869,27529,200908269,"Garner","WAKE","NC","US"
813,"3020 Moorpark Ln",35.6549,-78.53263,27529,245940365,"Garner","WAKE","NC","US"
814,"374 Glenkirk Pl",35.568447,-78.5595,27529,305075872,"Garner","WAKE","NC","US"
815,"140 Royal Star Way",35.568447,-78.5595,27529,2061206778,"Garner","WAKE","NC","US"
816,"218 Glenkirk Pl",35.568447,-78.5595,27529,2083432666,"Garner","WAKE","NC","US"
817,"140 Boone Trl",35.61096,-78.57889,27529,84699852,"Garner","WAKE","NC","US"
818,"505 Hazy Hills Ln #320",35.61096,-78.57889,27529,2059032460,"Garner","WAKE","NC","US"
819,"123 Yulan Way",35.61096,-78.57889,27529,2060124287,"Garner","WAKE","NC","US"
820,"LOT 4 Branch St",35.61096,-78.57889,27529,2062050834,"Garner","WAKE","NC","US"
821,"110 Avery St",35.711185,-78.61061,27529,6433682,"Garner","WAKE","NC","US"
822,"120 Nicklaus Dr",35.598747,-78.59359,27529,69120411,"Garner","WAKE","NC","US"
823,"172 Wood Orchid Ln",35.59718,-78.55978,27529,2060129441,"Garner","WAKE","NC","US"
824,"152 Wood Orchid Ln",35.59718,-78.55978,27529,2061210034,"Garner","WAKE","NC","US"
825,"165 Alderbranch Cir #214",35.59718,-78.55978,27529,2061900098,"Garner","WAKE","NC","US"
826,"107 Easton Ct",35.688374,-78.64384,27529,6455828,"Garner","WAKE","NC","US"
827,"202 Winding Brook Dr",35.67952,-78.60218,27529,6464449,"Garner","WAKE","NC","US"
828,"1120 Woodbrook Way",35.647324,-78.61867,27529,6478472,"Garner","WAKE","NC","US"
829,"1028 Brasnoor Ln",35.612915,-78.60335,27529,132206962,"Garner","WAKE","NC","US"
830,"145 Old Rose Path",35.686844,-78.642685,27529,338498655,"Garner","WAKE","NC","US"
831,"120 Tumbling Rock Way #40",35.686844,-78.642685,27529,2058803321,"Garner","WAKE","NC","US"
832,"164 Royal Star Way",NULL,NULL,27529,2061193062,"Garner","WAKE","NC","US"
833,"1220 Curtiss Dr",35.71692,-78.6194,27529,53454563,"Garner","WAKE","NC","US"
834,"160 Lager Ln",35.687572,-78.65026,27529,338500940,"Garner","WAKE","NC","US"
835,"156 Wood Orchid Ln",35.687572,-78.65026,27529,2061210328,"Garner","WAKE","NC","US"
836,"1106 Black Angus Dr",35.585926,-78.56882,27529,69105793,"Garner","WAKE","NC","US"
837,"181 Telesto Cir",35.575687,-78.510185,27529,124218943,"Garner","WAKE","NC","US"
838,"112 Jade Creek Dr #36",35.575687,-78.510185,27529,2060513982,"Garner","WAKE","NC","US"
839,"1302 Lakeside Dr",35.7003,-78.623055,27529,6400598,"Garner","WAKE","NC","US"
840,"1003 Aversboro Rd",35.69964,-78.617035,27529,6436533,"Garner","WAKE","NC","US"
841,"285 Marsh Creek Dr",35.617397,-78.57435,27529,200922999,"Garner","WAKE","NC","US"
842,"520 Fieldtrial Cir",35.585655,-78.589,27529,239897086,"Garner","WAKE","NC","US"
843,"92 Capewood Ct",35.617764,-78.5607,27529,305075857,"Garner","WAKE","NC","US"
844,"168 Wood Orchid Ln",35.617764,-78.5607,27529,2060129019,"Garner","WAKE","NC","US"
845,"243 Oak Br Trl",35.617764,-78.5607,27529,2062003236,"Garner","WAKE","NC","US"
846,"1125 Southern Trace Trl",35.63545,-78.608154,27529,50109277,"Garner","WAKE","NC","US"
847,"20 Reagan Ct",35.583485,-78.561874,27529,69112552,"Garner","WAKE","NC","US"
848,"149 Bellfare Dr",35.668385,-78.58838,27529,69566619,"Garner","WAKE","NC","US"
849,"130 Brookwynd Ct",35.684795,-78.63329,27529,81748118,"Garner","WAKE","NC","US"
850,"156 Pasadena Rd",35.72612,-78.59499,27529,83955048,"Garner","WAKE","NC","US"
851,"8 Heron Point Way",35.61364,-78.57329,27529,245939748,"Garner","WAKE","NC","US"
852,"227 Outwater Ridge Dr",35.61467,-78.57526,27529,245939756,"Garner","WAKE","NC","US"
853,"321 Wellons Creek Dr",35.6919,-78.61431,27529,248751472,"Garner","WAKE","NC","US"
854,"24 Montana Dr",35.576946,-78.54664,27529,304712798,"Garner","WAKE","NC","US"
855,"120 Wood Orchid Ln",35.576946,-78.54664,27529,2060126974,"Garner","WAKE","NC","US"
856,"440 Pierce Landing Dr",35.576946,-78.54664,27529,2060199967,"Garner","WAKE","NC","US"
857,"120 Jade Creek Dr #34",35.576946,-78.54664,27529,2060438936,"Garner","WAKE","NC","US"
858,"24 Mountain View Dr",35.576946,-78.54664,27529,2082418616,"Garner","WAKE","NC","US"
859,"3412 Rockhurst Dr",35.73228,-78.57986,27529,6422860,"Garner","WAKE","NC","US"
860,"45 Reunion Ct",35.610657,-78.5772,27529,121260672,"Garner","WAKE","NC","US"
861,"173 Depot Ridge Rd",35.669647,-78.586716,27529,132209038,"Garner","WAKE","NC","US"
862,"64 Edgewood Ln",35.605484,-78.58168,27529,245940115,"Garner","WAKE","NC","US"
863,"139 Lager Ln",35.68767,-78.65027,27529,338500959,"Garner","WAKE","NC","US"
864,"57 Serendipity Dr",35.68767,-78.65027,27529,2060447125,"Garner","WAKE","NC","US"
865,"144 Royal Star Way",35.68767,-78.65027,27529,2061209929,"Garner","WAKE","NC","US"
866,"100 Chapel Fields Ln",35.666428,-78.57112,27529,88947981,"Garner","WAKE","NC","US"
867,"6820 Payton View Dr",35.61887,-78.609375,27529,125247096,"Garner","WAKE","NC","US"
868,"172 Bonica Creek Dr",35.670742,-78.62477,27529,133206048,"Garner","WAKE","NC","US"
869,"1301 Viola Pl",35.611595,-78.590996,27529,67554309,"Garner","WAKE","NC","US"
870,"743 E Keri Dr",35.595966,-78.528984,27529,69117217,"Garner","WAKE","NC","US"
871,"11408 Hickory Grove Church Rd",35.92521,-78.73927,27613,6477346,"Raleigh","WAKE","NC","US"
872,"1904 Bowling Green Trl",35.97822,-78.70316,27613,65331827,"Raleigh","WAKE","NC","US"
873,"8201 Hempshire Pl APT 101",35.900055,-78.68409,27613,132198346,"Raleigh","WAKE","NC","US"
874,"6600 Glendower Rd",35.870102,-78.70731,27613,6450495,"Raleigh","WAKE","NC","US"
875,"6161 Bushmills St",35.86494,-78.69895,27613,6470879,"Raleigh","WAKE","NC","US"
876,"7221 Stonehenge Dr",35.886375,-78.68124,27613,6472444,"Raleigh","WAKE","NC","US"
877,"11976 McBride Dr",35.920033,-78.74831,27613,248749323,"Raleigh","WAKE","NC","US"
878,"11413 Old Creedmoor Rd",35.946617,-78.70092,27613,50098661,"Raleigh","WAKE","NC","US"
879,"102 Broad Leaf Cir",35.871025,-78.69788,27613,132178986,"Raleigh","WAKE","NC","US"
880,"8421 Camellia Dr",35.905643,-78.684166,27613,6405968,"Raleigh","WAKE","NC","US"
881,"7300 Quinby Ct",35.88024,-78.70409,27613,6486697,"Raleigh","WAKE","NC","US"
882,"7309 Glendower Rd",35.880356,-78.70578,27613,50099914,"Raleigh","WAKE","NC","US"
883,"7008 Ray Rd",35.87478,-78.689995,27613,6455787,"Raleigh","WAKE","NC","US"
884,"6707 Twin Tree Ct",35.877365,-78.679955,27613,6527291,"Raleigh","WAKE","NC","US"
885,"5212 Harrington Grove Dr",35.93283,-78.74274,27613,6539640,"Raleigh","WAKE","NC","US"
886,"8201 Hempshire Pl APT 105",35.900055,-78.68409,27613,132198350,"Raleigh","WAKE","NC","US"
887,"7005 Gentle Pine Pl",35.8706,-78.69974,27613,336869560,"Raleigh","WAKE","NC","US"
888,"2509 Sawmill Rd",35.882717,-78.6814,27613,6471401,"Raleigh","WAKE","NC","US"
889,"2336 Bolingbrook Ln",35.8806,-78.67753,27613,6552068,"Raleigh","WAKE","NC","US"
890,"12217 Jarden Ct",35.929966,-78.74794,27613,6517604,"Raleigh","WAKE","NC","US"
891,"6936 Leesville Rd",35.870884,-78.700325,27613,336867332,"Raleigh","WAKE","NC","US"
892,"8912 Willow Wood Ct",35.904106,-78.71096,27613,6451083,"Raleigh","WAKE","NC","US"
893,"2613 Sawmill Rd",35.882442,-78.68266,27613,6471409,"Raleigh","WAKE","NC","US"
894,"6736 Queen Annes Dr",35.872612,-78.70773,27613,6554170,"Raleigh","WAKE","NC","US"
895,"2009 Angelwing Ct",35.965057,-78.70971,27613,53461123,"Raleigh","WAKE","NC","US"
896,"2908 Allansford Ln",35.937183,-78.69068,27613,65344427,"Raleigh","WAKE","NC","US"
897,"6810 Milligan Way #105",35.864704,-78.711624,27613,336867919,"Raleigh","WAKE","NC","US"
898,"1508 Starry Night Ct",35.97807,-78.69259,27613,338499585,"Raleigh","WAKE","NC","US"
899,"8700 Bucksport Ln",35.87943,-78.68092,27613,6468537,"Raleigh","WAKE","NC","US"
900,"6722 Twin Tree Ct",35.877964,-78.67971,27613,6505145,"Raleigh","WAKE","NC","US"
901,"6002 Epping Forest Dr",35.875805,-78.710594,27613,6547734,"Raleigh","WAKE","NC","US"
902,"7549 Silver View Ln",35.88307,-78.72921,27613,65336721,"Raleigh","WAKE","NC","US"
903,"5411 Shaker Heights Ln",35.88778,-78.72989,27613,67555720,"Raleigh","WAKE","NC","US"
904,"3251 Lynn Rd",35.87162,-78.70043,27613,336867334,"Raleigh","WAKE","NC","US"
905,"7015 Gentle Pine Pl",35.87091,-78.700005,27613,336867784,"Raleigh","WAKE","NC","US"
906,"8447 Central Dr",35.89536,-78.738106,27613,65344118,"Raleigh","WAKE","NC","US"
907,"7017 Gentle Pine Pl",35.870968,-78.70004,27613,336869559,"Raleigh","WAKE","NC","US"
908,"2761 Farnborough Rd",35.887703,-78.686584,27613,6469765,"Raleigh","WAKE","NC","US"
909,"7525 S Tanglewild Dr",35.885357,-78.72138,27613,60534722,"Raleigh","WAKE","NC","US"
910,"2933 Mount Vernon Church Rd",35.97651,-78.693855,27613,336868981,"Raleigh","WAKE","NC","US"
911,"8327 City Loft Ct",35.88925,-78.73577,27613,65331477,"Raleigh","WAKE","NC","US"
912,"7013 Gentle Pine Pl",35.870853,-78.69996,27613,336869109,"Raleigh","WAKE","NC","US"
913,"5104 Old Timber Rd",35.926144,-78.72576,27613,6430567,"Raleigh","WAKE","NC","US"
914,"8321 Martello Ln",35.88963,-78.74067,27613,65342211,"Raleigh","WAKE","NC","US"
915,"13026 Edsel Dr",35.91119,-78.72289,27613,89799759,"Raleigh","WAKE","NC","US"
916,"7239 Summit Waters Ln",35.8767,-78.7203,27613,60395908,"Raleigh","WAKE","NC","US"
917,"7011 Gentle Pine Pl",35.8708,-78.69991,27613,336868444,"Raleigh","WAKE","NC","US"
918,"8805 Wellsley Way",35.90094,-78.69128,27613,6476054,"Raleigh","WAKE","NC","US"
919,"7700 Sutcliffe Dr",35.884747,-78.69298,27613,6527105,"Raleigh","WAKE","NC","US"
920,"5542 Red Robin Rd",35.876907,-78.72634,27613,60395875,"Raleigh","WAKE","NC","US"
921,"7246 Summit Waters Ln",35.87663,-78.71973,27613,60534856,"Raleigh","WAKE","NC","US"
922,"6917 Kemp Rd",35.955284,-78.73537,27613,119254108,"Raleigh","WAKE","NC","US"
923,"6719 Queen Annes Dr",35.872585,-78.70857,27613,6499013,"Raleigh","WAKE","NC","US"
924,"12201 Queensbridge Ct",35.928288,-78.748985,27613,6508129,"Raleigh","WAKE","NC","US"
925,"5016 Village Lawn Dr",35.922844,-78.742584,27613,6559917,"Raleigh","WAKE","NC","US"
926,"7009 Gentle Pine Pl",35.870735,-78.69986,27613,336866416,"Raleigh","WAKE","NC","US"
927,"6920 Glendower Rd",35.87569,-78.70648,27613,6476350,"Raleigh","WAKE","NC","US"
928,"5409 Von Hoyt Dr",35.934547,-78.71574,27613,6492802,"Raleigh","WAKE","NC","US"
929,"10036 Goodview Ct",35.9134,-78.69175,27613,6514225,"Raleigh","WAKE","NC","US"
930,"5825 Laurel Rock Ln",35.949646,-78.71998,27613,6535691,"Raleigh","WAKE","NC","US"
931,"8600 Evergreen Ct",35.896656,-78.72245,27613,6378511,"Raleigh","WAKE","NC","US"
932,"3106 Henry Dr",35.88581,-78.69159,27613,6461531,"Raleigh","WAKE","NC","US"
933,"5425 Golden Arrow Ln",35.874985,-78.725075,27613,60395839,"Raleigh","WAKE","NC","US"
934,"12628 Old Creedmoor Rd",35.97408,-78.70862,27613,132201013,"Raleigh","WAKE","NC","US"
935,"5013 Trail Ridge Dr",35.900368,-78.72146,27613,6455884,"Raleigh","WAKE","NC","US"
936,"4112 Landfall Ct",35.880814,-78.70719,27613,6496712,"Raleigh","WAKE","NC","US"
937,"7116 Kinross Dr",35.877895,-78.711876,27613,6491631,"Raleigh","WAKE","NC","US"
938,"8904 Riverview Park Dr",35.905144,-78.7053,27613,65336754,"Raleigh","WAKE","NC","US"
939,"8504 Micollet Ct",35.888798,-78.7398,27613,67557194,"Raleigh","WAKE","NC","US"
940,"4527 Hamptonshire Dr",35.874794,-78.708115,27613,6482149,"Raleigh","WAKE","NC","US"
941,"5805 Rocky Point Ct",35.945538,-78.72183,27613,6554447,"Raleigh","WAKE","NC","US"
942,"5045 Dawn Piper Dr",35.922222,-78.74391,27613,50109687,"Raleigh","WAKE","NC","US"
943,"7015 Wexford Woods Trl",35.96204,-78.7252,27613,59714783,"Raleigh","WAKE","NC","US"
944,"7009 Wheat Mill Pl",35.875217,-78.72693,27613,60395757,"Raleigh","WAKE","NC","US"
945,"7908 Verona Pl",35.89218,-78.69485,27613,6557595,"Raleigh","WAKE","NC","US"
946,"9520 Ray Rd",35.91456,-78.70686,27613,6420010,"Raleigh","WAKE","NC","US"
947,"10008 Bradwell Ct",35.93358,-78.74096,27613,6524458,"Raleigh","WAKE","NC","US"
948,"6034 Epping Forest Dr",35.876263,-78.70993,27613,6548680,"Raleigh","WAKE","NC","US"
949,"2625 Jasper Ln",35.94144,-78.73318,27613,6548995,"Raleigh","WAKE","NC","US"
950,"9112 Wellsley Way",35.902706,-78.68718,27613,118202293,"Raleigh","WAKE","NC","US"
951,"6320 Pleasant Pines Dr",35.866024,-78.71243,27613,132178367,"Raleigh","WAKE","NC","US"
952,"8331 Hempshire Pl APT 102",35.902225,-78.68405,27613,132198407,"Raleigh","WAKE","NC","US"
953,"7101 Benhart Dr",35.877083,-78.71074,27613,6491663,"Raleigh","WAKE","NC","US"
954,"10729 Winding Wood Trl",35.93131,-78.70569,27613,6508188,"Raleigh","WAKE","NC","US"
955,"5632 Slide Rock Ln",35.90037,-78.73482,27613,50116144,"Raleigh","WAKE","NC","US"
956,"2904 Sunnystone Way",35.93373,-78.732605,27613,60395545,"Raleigh","WAKE","NC","US"
957,"8509 Briarthorne Pl",35.89442,-78.717575,27613,79889817,"Raleigh","WAKE","NC","US"
958,"606 Broad Leaf Cir",35.87027,-78.69667,27613,132178971,"Raleigh","WAKE","NC","US"
959,"606 Broad Leaf Cir #606",35.87027,-78.69667,27613,2059252336,"Raleigh","WAKE","NC","US"
960,"11809 Strickland Rd",35.904846,-78.69485,27613,6387098,"Raleigh","WAKE","NC","US"
961,"3901 Summerwood Ct",35.86192,-78.70126,27613,6470145,"Raleigh","WAKE","NC","US"
962,"7382 Fontana Ridge Ln",35.883575,-78.707146,27613,65344255,"Raleigh","WAKE","NC","US"
963,"5821 Vintage Oak Ln",35.942944,-78.70176,27613,338498557,"Raleigh","WAKE","NC","US"
964,"10601 Winding Wood Trl",35.93074,-78.712906,27613,6460734,"Raleigh","WAKE","NC","US"
965,"5525 Banwell Pl",35.924454,-78.75367,27613,6501391,"Raleigh","WAKE","NC","US"
966,"2704 Full Cir",35.88704,-78.68573,27613,118202683,"Raleigh","WAKE","NC","US"
967,"5920 Dunbarton Way",35.94199,-78.715126,27613,6515529,"Raleigh","WAKE","NC","US"
968,"11000 Feather Grass Ln",35.934433,-78.742645,27613,89691584,"Raleigh","WAKE","NC","US"
969,"7920 Sutcliffe Dr",35.887814,-78.69547,27613,6513419,"Raleigh","WAKE","NC","US"
970,"4100 Starboard Ct",35.882317,-78.706215,27613,6506669,"Raleigh","WAKE","NC","US"
971,"8923 Camden Park Dr",35.897114,-78.738266,27613,67555623,"Raleigh","WAKE","NC","US"
972,"5932 Eaglesfield Dr",35.92626,-78.74699,27613,6560359,"Raleigh","WAKE","NC","US"
973,"100 Moray Dr",35.959404,-78.72681,27613,50028540,"Raleigh","WAKE","NC","US"
974,"6921 Chamonix Pl",35.87568,-78.70586,27613,6461734,"Raleigh","WAKE","NC","US"
975,"2509 Torbay Ct",35.882046,-78.682365,27613,6472370,"Raleigh","WAKE","NC","US"
976,"7005 Sandringham Dr",35.876793,-78.708595,27613,6472809,"Raleigh","WAKE","NC","US"
977,"12020 Old Creedmoor Rd",35.961025,-78.70496,27613,6487306,"Raleigh","WAKE","NC","US"
978,"2432 Carpenter Pond Rd",35.94626,-78.736694,27613,50028579,"Raleigh","WAKE","NC","US"
979,"11905 Straight A Way Ln",35.956318,-78.70046,27613,6441712,"Raleigh","WAKE","NC","US"
980,"6121 Loch Laural Ln",35.86382,-78.69789,27613,6480491,"Raleigh","WAKE","NC","US"
981,"5455 Wind Mountain Ln",35.881767,-78.73114,27613,62024379,"Raleigh","WAKE","NC","US"
982,"2433 Sunnystone Way",35.94298,-78.728226,27613,6544312,"Raleigh","WAKE","NC","US"
983,"7016 Trenton Ridge Ct",35.97431,-78.69751,27613,50115679,"Raleigh","WAKE","NC","US"
984,"10004 Goodview Ct",35.913548,-78.68998,27613,6514233,"Raleigh","WAKE","NC","US"
985,"4105 Fencrest Ct",35.909515,-78.70887,27613,331658255,"Raleigh","WAKE","NC","US"
986,"3924 Maplefield Dr",35.912975,-78.70457,27613,6462871,"Raleigh","WAKE","NC","US"
987,"8561 Wake Forest Hwy",35.912975,-78.70457,27613,2117990839,"Raleigh","WAKE","NC","US"
988,"5533 Red Robin Rd",35.876595,-78.726074,27613,60534823,"Raleigh","WAKE","NC","US"
989,"4021 Westwood Pl",35.88741,-78.70396,27613,6515038,"Raleigh","WAKE","NC","US"
990,"13104 Ashford Park Dr",35.904633,-78.72476,27613,65339893,"Raleigh","WAKE","NC","US"
991,"5032 Big Creek Rd",35.931053,-78.73256,27613,69565404,"Raleigh","WAKE","NC","US"
992,"4108 Fencrest Ct",35.909588,-78.70935,27613,331656385,"Raleigh","WAKE","NC","US"
993,"6405 Shadow Ct",35.869663,-78.70558,27613,6446707,"Raleigh","WAKE","NC","US"
994,"8709 Langtree Ln",35.900715,-78.69237,27613,6464127,"Raleigh","WAKE","NC","US"
995,"4606 Hamptonshire Dr",35.874172,-78.70801,27613,6486071,"Raleigh","WAKE","NC","US"
996,"7705 Tylerton Dr",35.885914,-78.70636,27613,6525136,"Raleigh","WAKE","NC","US"
997,"8493 Central Dr",35.895206,-78.73962,27613,65344079,"Raleigh","WAKE","NC","US"
998,"13140 Ashford Park Dr",35.90403,-78.72646,27613,69566532,"Raleigh","WAKE","NC","US"
999,"10100 Darling St",35.920624,-78.75585,27613,69567544,"Raleigh","WAKE","NC","US"
1000,"3904 Summerwood Ct",35.862404,-78.70061,27613,6471727,"Raleigh","WAKE","NC","US"
1001,"3611 Plumbridge Ct",35.862865,-78.69727,27613,6514263,"Raleigh","WAKE","NC","US"
1002,"1501 Liatris Ln",35.93636,-78.697685,27613,53455511,"Raleigh","WAKE","NC","US"
1003,"5523 Berry Creek Cir",35.878742,-78.73084,27613,65344048,"Raleigh","WAKE","NC","US"
1004,"3420 Hackney Ct",35.95408,-78.707344,27613,6441907,"Raleigh","WAKE","NC","US"
1005,"5208 Calverton Dr",35.925247,-78.74002,27613,6537344,"Raleigh","WAKE","NC","US"
1006,"8409 Aptos Ct",35.896233,-78.70321,27613,65331675,"Raleigh","WAKE","NC","US"
1007,"4304 Pickwick Dr",35.86919,-78.702126,27613,6446726,"Raleigh","WAKE","NC","US"
1008,"11817 Pembridge Ln",35.96615,-78.68968,27613,6498009,"Raleigh","WAKE","NC","US"
1009,"8500 Slabstone Ct",35.889416,-78.73774,27613,60534246,"Raleigh","WAKE","NC","US"
1010,"6801 Milligan Way #101",35.86471,-78.711624,27613,336867507,"Raleigh","WAKE","NC","US"
1011,"7249 Galon Glen Rd",35.878735,-78.72785,27613,60534786,"Raleigh","WAKE","NC","US"
1012,"3421 Horseshoe Bnd",35.943604,-78.706375,27613,6441821,"Raleigh","WAKE","NC","US"
1013,"6132 Loch Laural Ln",35.864292,-78.69767,27613,6483165,"Raleigh","WAKE","NC","US"
1014,"8801 Foggy Bottom Dr",35.90028,-78.694374,27613,50099321,"Raleigh","WAKE","NC","US"
1015,"4201 Samantha Dr",35.89235,-78.70724,27613,6541898,"Raleigh","WAKE","NC","US"
1016,"5120 Wood Valley Dr",35.929413,-78.714226,27613,6460847,"Raleigh","WAKE","NC","US"
1017,"11619 Shavenrock Pl",35.924793,-78.7434,27613,6540305,"Raleigh","WAKE","NC","US"
1018,"12524 Harcourt Dr",35.931767,-78.741646,27613,6541433,"Raleigh","WAKE","NC","US"
1019,"8201 Clarks Branch Dr",35.89591,-78.73546,27613,65342306,"Raleigh","WAKE","NC","US"
1020,"7204 Sing Along Ct",35.97943,-78.69241,27613,336868550,"Raleigh","WAKE","NC","US"
1021,"8913 Oneal Rd",35.897995,-78.717545,27613,6383370,"Raleigh","WAKE","NC","US"
1022,"11108 Crestmont Dr",35.920643,-78.734726,27613,6395889,"Raleigh","WAKE","NC","US"
1023,"11104 Crestmont Dr",35.920387,-78.73476,27613,6395893,"Raleigh","WAKE","NC","US"
1024,"8515 Wake Forest Hwy",35.98576,-78.71269,27613,59714798,"Raleigh","WAKE","NC","US"
1025,"9016 Admaston Dr",35.9068,-78.70893,27613,6545683,"Raleigh","WAKE","NC","US"
1026,"12724 Amoretto Way",35.93424,-78.72782,27613,67553815,"Raleigh","WAKE","NC","US"
1027,"2800 Romealia Ln",35.887222,-78.68779,27613,118202357,"Raleigh","WAKE","NC","US"
1028,"11727 Man O War Trl",35.952656,-78.709175,27613,6441945,"Raleigh","WAKE","NC","US"
1029,"9209 Oneal Rd",35.894344,-78.72409,27613,6456107,"Raleigh","WAKE","NC","US"
1030,"7624 Pinecrest Rd",35.885906,-78.72637,27613,81437125,"Raleigh","WAKE","NC","US"
1031,"120 Tayberry Ct",35.61858,-78.87964,27540,331657440,"Holly Springs","WAKE","NC","US"
1032,"109 Edgepine Dr",35.662357,-78.77662,27540,65341925,"Holly Springs","WAKE","NC","US"
1033,"7820 State Highway 42",35.544453,-78.934875,27540,71874567,"Holly Springs","WAKE","NC","US"
1034,"617 Wellspring Dr",35.67065,-78.82365,27540,89494502,"Holly Springs","WAKE","NC","US"
1035,"629 Old Ride Dr",35.65771,-78.8252,27540,248749585,"Holly Springs","WAKE","NC","US"
1036,"317 Kephart Way",35.62035,-78.845024,27540,331658139,"Holly Springs","WAKE","NC","US"
1037,"128 Clapper Ln",35.62035,-78.845024,27540,2058923443,"Holly Springs","WAKE","NC","US"
1038,"1029 Quindell Dr",35.62035,-78.845024,27540,2059034270,"Holly Springs","WAKE","NC","US"
1039,"209 Otis Way",35.617405,-78.8465,27540,331657719,"Holly Springs","WAKE","NC","US"
1040,"104 Elmcrest Dr",35.658478,-78.79414,27540,50105960,"Holly Springs","WAKE","NC","US"
1041,"109 Roseroot Ct",35.66764,-78.86726,27540,133702649,"Holly Springs","WAKE","NC","US"
1042,"201 Blue Granite Dr",35.62529,-78.86674,27540,215484672,"Holly Springs","WAKE","NC","US"
1043,"220 Sweetbriar Rose Ct",35.649418,-78.882904,27540,305120206,"Holly Springs","WAKE","NC","US"
1044,"6104 Hilbert Ridge Dr",35.608894,-78.86149,27540,6559789,"Holly Springs","WAKE","NC","US"
1045,"220 Beaconwood Ln",35.66886,-78.857605,27540,120545221,"Holly Springs","WAKE","NC","US"
1046,"105 Pointe Park Cir",35.627686,-78.87336,27540,122281025,"Holly Springs","WAKE","NC","US"
1047,"108 Tuttle Trl #514",35.627686,-78.87336,27540,2058833088,"Holly Springs","WAKE","NC","US"
1048,"6721 Winter Garden Way",35.59588,-78.86655,27540,2061505137,"Holly Springs","WAKE","NC","US"
1049,"409 Cottonwood Ln",35.647297,-78.84003,27540,6526534,"Holly Springs","WAKE","NC","US"
1050,"101 Canyon Ledge Dr",35.623848,-78.89543,27540,305122966,"Holly Springs","WAKE","NC","US"
1051,"129 Holly Mountain Rd",35.6482,-78.820885,27540,6556207,"Holly Springs","WAKE","NC","US"
1052,"105 Cheval Ct",35.6292,-78.82912,27540,133701199,"Holly Springs","WAKE","NC","US"
1053,"129 Ulverston Dr",35.64798,-78.813255,27540,122282459,"Holly Springs","WAKE","NC","US"
1054,"102 Hundred Oaks Ln",35.66122,-78.86848,27540,133699246,"Holly Springs","WAKE","NC","US"
1055,"1113 Prewitt Ranch Dr",35.66122,-78.86848,27540,2058940005,"Holly Springs","WAKE","NC","US"
1056,"1201 Quindell Dr",35.66122,-78.86848,27540,2060113341,"Holly Springs","WAKE","NC","US"
1057,"6613 Summit Creek Dr",35.66122,-78.86848,27540,2061507205,"Holly Springs","WAKE","NC","US"
1058,"7016 Buckhorn Duncan Rd",35.599274,-78.87288,27540,6375194,"Holly Springs","WAKE","NC","US"
1059,"Gable Ridge Ln",35.65343,-78.809845,27540,6540029,"Holly Springs","WAKE","NC","US"
1060,"509 Saint Croix Dr",35.66101,-78.8303,27540,6542764,"Holly Springs","WAKE","NC","US"
1061,"416 Lee St",35.64877,-78.82941,27540,53456400,"Holly Springs","WAKE","NC","US"
1062,"109 Wescott Ridge Dr",35.660065,-78.791145,27540,65329875,"Holly Springs","WAKE","NC","US"
1063,"145 Acorn Ridge Ln",35.637707,-78.865105,27540,305120596,"Holly Springs","WAKE","NC","US"
1064,"129 Tayberry Ct",35.618095,-78.87853,27540,331656715,"Holly Springs","WAKE","NC","US"
1065,"209 Chickasaw Plum Dr",35.647266,-78.8764,27540,336865706,"Holly Springs","WAKE","NC","US"
1066,"216 Breeders Cup Way",35.619297,-78.85975,27540,336866197,"Holly Springs","WAKE","NC","US"
1067,"308 Southerland Shire Ln #273",35.619297,-78.85975,27540,2059957735,"Holly Springs","WAKE","NC","US"
1068,"1205 Quindell Dr",35.619297,-78.85975,27540,2060112856,"Holly Springs","WAKE","NC","US"
1069,"145 Acorn Crossing Rd LOT 1792",35.619297,-78.85975,27540,2060765811,"Holly Springs","WAKE","NC","US"
1070,"309 Springside Dr",35.64466,-78.83117,27540,6562402,"Holly Springs","WAKE","NC","US"
1071,"313 Hillspring Ln",35.650906,-78.8186,27540,6565214,"Holly Springs","WAKE","NC","US"
1072,"412 Brightling Way",35.65968,-78.783424,27540,70488361,"Holly Springs","WAKE","NC","US"
1073,"105 Roseberry Way",35.664288,-78.78265,27540,110541500,"Holly Springs","WAKE","NC","US"
1074,"105 Holly Cove Ct",35.62691,-78.89694,27540,336869513,"Holly Springs","WAKE","NC","US"
1075,"404 Faxton Way #423",35.62691,-78.89694,27540,2059570188,"Holly Springs","WAKE","NC","US"
1076,"1208 Quindell Dr",35.62691,-78.89694,27540,2060140977,"Holly Springs","WAKE","NC","US"
1077,"6733 Winter Way",35.62691,-78.89694,27540,2060436796,"Holly Springs","WAKE","NC","US"
1078,"104 Faxton Way #576",35.62691,-78.89694,27540,2061189582,"Holly Springs","WAKE","NC","US"
1079,"86 Buckhaven Dr",35.56343,-78.91543,27540,338585875,"Holly Springs","WAKE","NC","US"
1080,"112 Tuttle Trl #516",35.56343,-78.91543,27540,2058888942,"Holly Springs","WAKE","NC","US"
1081,"108 Clapper Ln",35.56343,-78.91543,27540,2058923444,"Holly Springs","WAKE","NC","US"
1082,"316 Southerland Shire Ln E #275",35.56343,-78.91543,27540,2060359934,"Holly Springs","WAKE","NC","US"
1083,"100 Rider Race Bend Valencia LOT 56",35.56343,-78.91543,27540,2062155855,"Holly Springs","WAKE","NC","US"
1084,"312 Ressler St #504",35.56343,-78.91543,27540,2062971141,"Holly Springs","WAKE","NC","US"
1085,"4912 Brambleridge Ct",35.65051,-78.8005,27540,60531465,"Holly Springs","WAKE","NC","US"
1086,"5320 Millstone Creek Dr",35.639313,-78.79599,27540,65329854,"Holly Springs","WAKE","NC","US"
1087,"220 Midden Way",35.66147,-78.82166,27540,65342900,"Holly Springs","WAKE","NC","US"
1088,"220 Harbor Fog Trl",35.635284,-78.853325,27540,122063722,"Holly Springs","WAKE","NC","US"
1089,"649 Old Ride Dr",35.657303,-78.825294,27540,248751699,"Holly Springs","WAKE","NC","US"
1090,"321 Southerland Shire Ln W #276",35.657303,-78.825294,27540,2059962747,"Holly Springs","WAKE","NC","US"
1091,"140 Clapper Ln #39",35.657303,-78.825294,27540,2060499625,"Holly Springs","WAKE","NC","US"
1092,"124 Alumroot Rd #7",35.657303,-78.825294,27540,2063234975,"Holly Springs","WAKE","NC","US"
1093,"1910 Wade Stephenson Rd",35.572216,-78.89652,27540,71878465,"Holly Springs","WAKE","NC","US"
1094,"1136 Prewitt Ranch Dr",35.602474,-78.819374,27540,2062242162,"Fuquay Varina","WAKE","NC","US"
1095,"0 Fred Burns Rd",35.602474,-78.819374,27540,2077390222,"Holly Springs","WAKE","NC","US"
1096,"4408 Norak Dr",35.657684,-78.79032,27540,6526686,"Holly Springs","WAKE","NC","US"
1097,"104 Folsom Dr",35.663944,-78.83141,27540,67558601,"Holly Springs","WAKE","NC","US"
1098,"324 Chrismill Ln",35.662903,-78.82482,27540,69229285,"Holly Springs","WAKE","NC","US"
1099,"113 Braxman Ln",35.637802,-78.875145,27540,69566809,"Holly Springs","WAKE","NC","US"
1100,"101 Oakhaven Dr",35.56392,-78.913506,27540,338585903,"Holly Springs","WAKE","NC","US"
1101,"353 Faxton Way #396",35.56392,-78.913506,27540,2061676060,"Holly Springs","WAKE","NC","US"
1102,"5312 Stableview Ct",35.63306,-78.798904,27540,6512116,"Holly Springs","WAKE","NC","US"
1103,"421 Tonks Trl",35.62467,-78.87469,27540,133698989,"Holly Springs","WAKE","NC","US"
1104,"232 Kephart Way",35.62078,-78.84581,27540,331654523,"Holly Springs","WAKE","NC","US"
1105,"180 Lane Farms Way",35.62078,-78.84581,27540,2059078619,"Holly Springs","WAKE","NC","US"
1106,"409 Faxton Way #393",35.62078,-78.84581,27540,2062216209,"Holly Springs","WAKE","NC","US"
1107,"536 Baygall Rd",35.646366,-78.82748,27540,6548626,"Holly Springs","WAKE","NC","US"
1108,"4913 Brambleridge Ct",35.651024,-78.79977,27540,60531472,"Holly Springs","WAKE","NC","US"
1109,"113 Sweet Violet Dr",35.669205,-78.85462,27540,118203925,"Holly Springs","WAKE","NC","US"
1110,"424 Cahors Trl",35.6288,-78.87347,27540,305120385,"Holly Springs","WAKE","NC","US"
1111,"123 Station Dr",35.86914,-78.85481,27560,98207765,"Morrisville","WAKE","NC","US"
1112,"312 Carolina St #57",35.86914,-78.85481,27560,2061864957,"Morrisville","WAKE","NC","US"
1113,"222 Hampshire Downs Dr",35.82398,-78.84106,27560,70489619,"Morrisville","WAKE","NC","US"
1114,"803 Keystone Park Dr",35.868725,-78.8534,27560,98202783,"Morrisville","WAKE","NC","US"
1115,"910 Keystone Park Dr",35.867744,-78.851295,27560,114416489,"Morrisville","WAKE","NC","US"
1116,"1109 Governess Ln",35.86477,-78.85753,27560,215485752,"Morrisville","WAKE","NC","US"
1117,"118 History Pl",35.8924,-78.83735,27560,249993421,"Durham","WAKE","NC","US"
1118,"307 Stockton Gorge Rd",35.84892,-78.85037,27560,113223390,"Morrisville","WAKE","NC","US"
1119,"109 Winifred Dr",35.890507,-78.83321,27560,157439301,"Morrisville","WAKE","NC","US"
